$GPGGA,034417.194,2334.349,N,12029.141,E,1,12,1.0,0.0,M,0.0,M,,*63
$GPGSA,A,3,01,02,03,04,05,06,07,08,09,10,11,12,1.0,1.0,1.0*30
$GPRMC,034417.194,A,2334.349,N,12029.141,E,077.8,093.2,270323,000.0,W*70
$GPGGA,034417.694,2334.348,N,12029.153,E,1,12,1.0,0.0,M,0.0,M,,*66
$GPGSA,A,3,01,02,03,04,05,06,07,08,09,10,11,12,1.0,1.0,1.0*30
$GPRMC,034417.694,A,2334.348,N,12029.153,E,077.8,093.2,270323,000.0,W*75
$GPGGA,034418.194,2334.348,N,12029.165,E,1,12,1.0,0.0,M,0.0,M,,*6B
$GPGSA,A,3,01,02,03,04,05,06,07,08,09,10,11,12,1.0,1.0,1.0*30
$GPRMC,034418.194,A,2334.348,N,12029.165,E,077.8,093.2,270323,000.0,W*78
$GPGGA,034418.694,2334.347,N,12029.176,E,1,12,1.0,0.0,M,0.0,M,,*61
$GPGSA,A,3,01,02,03,04,05,06,07,08,09,10,11,12,1.0,1.0,1.0*30
$GPRMC,034418.694,A,2334.347,N,12029.176,E,077.8,077.9,270323,000.0,W*73
$GPGGA,034419.194,2334.350,N,12029.188,E,1,12,1.0,0.0,M,0.0,M,,*60
$GPGSA,A,3,01,02,03,04,05,06,07,08,09,10,11,12,1.0,1.0,1.0*30
$GPRMC,034419.194,A,2334.350,N,12029.188,E,077.8,069.2,270323,000.0,W*76
$GPGGA,034419.694,2334.354,N,12029.199,E,1,12,1.0,0.0,M,0.0,M,,*63
$GPGSA,A,3,01,02,03,04,05,06,07,08,09,10,11,12,1.0,1.0,1.0*30
$GPRMC,034419.694,A,2334.354,N,12029.199,E,077.8,069.2,270323,000.0,W*75
$GPGGA,034420.194,2334.358,N,12029.210,E,1,12,1.0,0.0,M,0.0,M,,*60
$GPGSA,A,3,01,02,03,04,05,06,07,08,09,10,11,12,1.0,1.0,1.0*30
$GPRMC,034420.194,A,2334.358,N,12029.210,E,077.8,048.9,270323,000.0,W*7E
$GPGGA,034420.694,2334.365,N,12029.218,E,1,12,1.0,0.0,M,0.0,M,,*61
$GPGSA,A,3,01,02,03,04,05,06,07,08,09,10,11,12,1.0,1.0,1.0*30
$GPRMC,034420.694,A,2334.365,N,12029.218,E,077.8,048.9,270323,000.0,W*7F
$GPGGA,034421.194,2334.373,N,12029.227,E,1,12,1.0,0.0,M,0.0,M,,*6C
$GPGSA,A,3,01,02,03,04,05,06,07,08,09,10,11,12,1.0,1.0,1.0*30
$GPRMC,034421.194,A,2334.373,N,12029.227,E,077.8,048.9,270323,000.0,W*72
$GPGGA,034421.694,2334.380,N,12029.235,E,1,12,1.0,0.0,M,0.0,M,,*64
$GPGSA,A,3,01,02,03,04,05,06,07,08,09,10,11,12,1.0,1.0,1.0*30
$GPRMC,034421.694,A,2334.380,N,12029.235,E,077.8,048.9,270323,000.0,W*7A
$GPGGA,034422.194,2334.388,N,12029.244,E,1,12,1.0,0.0,M,0.0,M,,*6E
$GPGSA,A,3,01,02,03,04,05,06,07,08,09,10,11,12,1.0,1.0,1.0*30
$GPRMC,034422.194,A,2334.388,N,12029.244,E,077.8,048.8,270323,000.0,W*71
$GPGGA,034422.694,2334.395,N,12029.252,E,1,12,1.0,0.0,M,0.0,M,,*62
$GPGSA,A,3,01,02,03,04,05,06,07,08,09,10,11,12,1.0,1.0,1.0*30
$GPRMC,034422.694,A,2334.395,N,12029.252,E,077.8,048.8,270323,000.0,W*7D
$GPGGA,034423.194,2334.402,N,12029.261,E,1,12,1.0,0.0,M,0.0,M,,*6D
$GPGSA,A,3,01,02,03,04,05,06,07,08,09,10,11,12,1.0,1.0,1.0*30
$GPRMC,034423.194,A,2334.402,N,12029.261,E,077.8,048.8,270323,000.0,W*72
$GPGGA,034423.694,2334.410,N,12029.269,E,1,12,1.0,0.0,M,0.0,M,,*61
$GPGSA,A,3,01,02,03,04,05,06,07,08,09,10,11,12,1.0,1.0,1.0*30
$GPRMC,034423.694,A,2334.410,N,12029.269,E,077.8,048.8,270323,000.0,W*7E
$GPGGA,034424.194,2334.417,N,12029.278,E,1,12,1.0,0.0,M,0.0,M,,*66
$GPGSA,A,3,01,02,03,04,05,06,07,08,09,10,11,12,1.0,1.0,1.0*30
$GPRMC,034424.194,A,2334.417,N,12029.278,E,077.8,048.8,270323,000.0,W*79
$GPGGA,034424.694,2334.425,N,12029.286,E,1,12,1.0,0.0,M,0.0,M,,*61
$GPGSA,A,3,01,02,03,04,05,06,07,08,09,10,11,12,1.0,1.0,1.0*30
$GPRMC,034424.694,A,2334.425,N,12029.286,E,077.8,045.8,270323,000.0,W*73
$GPGGA,034425.194,2334.433,N,12029.295,E,1,12,1.0,0.0,M,0.0,M,,*62
$GPGSA,A,3,01,02,03,04,05,06,07,08,09,10,11,12,1.0,1.0,1.0*30
$GPRMC,034425.194,A,2334.433,N,12029.295,E,077.8,045.8,270323,000.0,W*70
$GPGGA,034425.694,2334.440,N,12029.303,E,1,12,1.0,0.0,M,0.0,M,,*6F
$GPGSA,A,3,01,02,03,04,05,06,07,08,09,10,11,12,1.0,1.0,1.0*30
$GPRMC,034425.694,A,2334.440,N,12029.303,E,077.8,045.8,270323,000.0,W*7D
$GPGGA,034426.194,2334.448,N,12029.311,E,1,12,1.0,0.0,M,0.0,M,,*60
$GPGSA,A,3,01,02,03,04,05,06,07,08,09,10,11,12,1.0,1.0,1.0*30
$GPRMC,034426.194,A,2334.448,N,12029.311,E,077.8,045.8,270323,000.0,W*72
$GPGGA,034426.694,2334.456,N,12029.319,E,1,12,1.0,0.0,M,0.0,M,,*60
$GPGSA,A,3,01,02,03,04,05,06,07,08,09,10,11,12,1.0,1.0,1.0*30
$GPRMC,034426.694,A,2334.456,N,12029.319,E,077.8,045.8,270323,000.0,W*72
$GPGGA,034427.194,2334.464,N,12029.327,E,1,12,1.0,0.0,M,0.0,M,,*6A
$GPGSA,A,3,01,02,03,04,05,06,07,08,09,10,11,12,1.0,1.0,1.0*30
$GPRMC,034427.194,A,2334.464,N,12029.327,E,077.8,045.8,270323,000.0,W*78
$GPGGA,034427.694,2334.472,N,12029.335,E,1,12,1.0,0.0,M,0.0,M,,*69
$GPGSA,A,3,01,02,03,04,05,06,07,08,09,10,11,12,1.0,1.0,1.0*30
$GPRMC,034427.694,A,2334.472,N,12029.335,E,077.8,045.8,270323,000.0,W*7B
$GPGGA,034428.194,2334.480,N,12029.343,E,1,12,1.0,0.0,M,0.0,M,,*6D
$GPGSA,A,3,01,02,03,04,05,06,07,08,09,10,11,12,1.0,1.0,1.0*30
$GPRMC,034428.194,A,2334.480,N,12029.343,E,077.8,045.8,270323,000.0,W*7F
$GPGGA,034428.694,2334.488,N,12029.351,E,1,12,1.0,0.0,M,0.0,M,,*61
$GPGSA,A,3,01,02,03,04,05,06,07,08,09,10,11,12,1.0,1.0,1.0*30
$GPRMC,034428.694,A,2334.488,N,12029.351,E,077.8,045.8,270323,000.0,W*73
$GPGGA,034429.194,2334.495,N,12029.359,E,1,12,1.0,0.0,M,0.0,M,,*63
$GPGSA,A,3,01,02,03,04,05,06,07,08,09,10,11,12,1.0,1.0,1.0*30
$GPRMC,034429.194,A,2334.495,N,12029.359,E,077.8,045.8,270323,000.0,W*71
$GPGGA,034429.694,2334.503,N,12029.367,E,1,12,1.0,0.0,M,0.0,M,,*67
$GPGSA,A,3,01,02,03,04,05,06,07,08,09,10,11,12,1.0,1.0,1.0*30
$GPRMC,034429.694,A,2334.503,N,12029.367,E,077.8,045.8,270323,000.0,W*75
$GPGGA,034430.194,2334.511,N,12029.375,E,1,12,1.0,0.0,M,0.0,M,,*68
$GPGSA,A,3,01,02,03,04,05,06,07,08,09,10,11,12,1.0,1.0,1.0*30
$GPRMC,034430.194,A,2334.511,N,12029.375,E,077.8,057.5,270323,000.0,W*74
$GPGGA,034430.694,2334.517,N,12029.385,E,1,12,1.0,0.0,M,0.0,M,,*66
$GPGSA,A,3,01,02,03,04,05,06,07,08,09,10,11,12,1.0,1.0,1.0*30
$GPRMC,034430.694,A,2334.517,N,12029.385,E,077.8,057.5,270323,000.0,W*7A
$GPGGA,034431.194,2334.523,N,12029.395,E,1,12,1.0,0.0,M,0.0,M,,*66
$GPGSA,A,3,01,02,03,04,05,06,07,08,09,10,11,12,1.0,1.0,1.0*30
$GPRMC,034431.194,A,2334.523,N,12029.395,E,077.8,057.5,270323,000.0,W*7A
$GPGGA,034431.694,2334.530,N,12029.404,E,1,12,1.0,0.0,M,0.0,M,,*6C
$GPGSA,A,3,01,02,03,04,05,06,07,08,09,10,11,12,1.0,1.0,1.0*30
$GPRMC,034431.694,A,2334.530,N,12029.404,E,077.8,057.5,270323,000.0,W*70
$GPGGA,034432.194,2334.536,N,12029.414,E,1,12,1.0,0.0,M,0.0,M,,*6F
$GPGSA,A,3,01,02,03,04,05,06,07,08,09,10,11,12,1.0,1.0,1.0*30
$GPRMC,034432.194,A,2334.536,N,12029.414,E,077.8,057.5,270323,000.0,W*73
$GPGGA,034432.694,2334.542,N,12029.424,E,1,12,1.0,0.0,M,0.0,M,,*68
$GPGSA,A,3,01,02,03,04,05,06,07,08,09,10,11,12,1.0,1.0,1.0*30
$GPRMC,034432.694,A,2334.542,N,12029.424,E,077.8,057.5,270323,000.0,W*74
$GPGGA,034433.194,2334.548,N,12029.433,E,1,12,1.0,0.0,M,0.0,M,,*62
$GPGSA,A,3,01,02,03,04,05,06,07,08,09,10,11,12,1.0,1.0,1.0*30
$GPRMC,034433.194,A,2334.548,N,12029.433,E,077.8,057.5,270323,000.0,W*7E
$GPGGA,034433.694,2334.554,N,12029.443,E,1,12,1.0,0.0,M,0.0,M,,*6F
$GPGSA,A,3,01,02,03,04,05,06,07,08,09,10,11,12,1.0,1.0,1.0*30
$GPRMC,034433.694,A,2334.554,N,12029.443,E,077.8,057.5,270323,000.0,W*73
$GPGGA,034434.194,2334.560,N,12029.453,E,1,12,1.0,0.0,M,0.0,M,,*69
$GPGSA,A,3,01,02,03,04,05,06,07,08,09,10,11,12,1.0,1.0,1.0*30
$GPRMC,034434.194,A,2334.560,N,12029.453,E,077.8,057.5,270323,000.0,W*75
$GPGGA,034434.694,2334.567,N,12029.462,E,1,12,1.0,0.0,M,0.0,M,,*6B
$GPGSA,A,3,01,02,03,04,05,06,07,08,09,10,11,12,1.0,1.0,1.0*30
$GPRMC,034434.694,A,2334.567,N,12029.462,E,077.8,060.3,270323,000.0,W*75
$GPGGA,034435.194,2334.572,N,12029.472,E,1,12,1.0,0.0,M,0.0,M,,*68
$GPGSA,A,3,01,02,03,04,05,06,07,08,09,10,11,12,1.0,1.0,1.0*30
$GPRMC,034435.194,A,2334.572,N,12029.472,E,077.8,060.3,270323,000.0,W*76
$GPGGA,034435.694,2334.578,N,12029.482,E,1,12,1.0,0.0,M,0.0,M,,*6A
$GPGSA,A,3,01,02,03,04,05,06,07,08,09,10,11,12,1.0,1.0,1.0*30
$GPRMC,034435.694,A,2334.578,N,12029.482,E,077.8,060.3,270323,000.0,W*74
$GPGGA,034436.194,2334.584,N,12029.492,E,1,12,1.0,0.0,M,0.0,M,,*6C
$GPGSA,A,3,01,02,03,04,05,06,07,08,09,10,11,12,1.0,1.0,1.0*30
$GPRMC,034436.194,A,2334.584,N,12029.492,E,077.8,060.3,270323,000.0,W*72
$GPGGA,034436.694,2334.589,N,12029.502,E,1,12,1.0,0.0,M,0.0,M,,*6E
$GPGSA,A,3,01,02,03,04,05,06,07,08,09,10,11,12,1.0,1.0,1.0*30
$GPRMC,034436.694,A,2334.589,N,12029.502,E,077.8,060.3,270323,000.0,W*70
$GPGGA,034437.194,2334.595,N,12029.512,E,1,12,1.0,0.0,M,0.0,M,,*64
$GPGSA,A,3,01,02,03,04,05,06,07,08,09,10,11,12,1.0,1.0,1.0*30
$GPRMC,034437.194,A,2334.595,N,12029.512,E,077.8,060.3,270323,000.0,W*7A
$GPGGA,034437.694,2334.601,N,12029.522,E,1,12,1.0,0.0,M,0.0,M,,*6E
$GPGSA,A,3,01,02,03,04,05,06,07,08,09,10,11,12,1.0,1.0,1.0*30
$GPRMC,034437.694,A,2334.601,N,12029.522,E,077.8,060.3,270323,000.0,W*70
$GPGGA,034438.194,2334.606,N,12029.532,E,1,12,1.0,0.0,M,0.0,M,,*60
$GPGSA,A,3,01,02,03,04,05,06,07,08,09,10,11,12,1.0,1.0,1.0*30
$GPRMC,034438.194,A,2334.606,N,12029.532,E,077.8,060.3,270323,000.0,W*7E
$GPGGA,034438.694,2334.612,N,12029.542,E,1,12,1.0,0.0,M,0.0,M,,*65
$GPGSA,A,3,01,02,03,04,05,06,07,08,09,10,11,12,1.0,1.0,1.0*30
$GPRMC,034438.694,A,2334.612,N,12029.542,E,077.8,060.3,270323,000.0,W*7B
$GPGGA,034439.194,2334.618,N,12029.552,E,1,12,1.0,0.0,M,0.0,M,,*68
$GPGSA,A,3,01,02,03,04,05,06,07,08,09,10,11,12,1.0,1.0,1.0*30
$GPRMC,034439.194,A,2334.618,N,12029.552,E,077.8,064.8,270323,000.0,W*79
$GPGGA,034439.694,2334.623,N,12029.563,E,1,12,1.0,0.0,M,0.0,M,,*65
$GPGSA,A,3,01,02,03,04,05,06,07,08,09,10,11,12,1.0,1.0,1.0*30
$GPRMC,034439.694,A,2334.623,N,12029.563,E,077.8,064.8,270323,000.0,W*74
$GPGGA,034440.194,2334.628,N,12029.573,E,1,12,1.0,0.0,M,0.0,M,,*66
$GPGSA,A,3,01,02,03,04,05,06,07,08,09,10,11,12,1.0,1.0,1.0*30
$GPRMC,034440.194,A,2334.628,N,12029.573,E,077.8,064.8,270323,000.0,W*77
$GPGGA,034440.694,2334.633,N,12029.584,E,1,12,1.0,0.0,M,0.0,M,,*63
$GPGSA,A,3,01,02,03,04,05,06,07,08,09,10,11,12,1.0,1.0,1.0*30
$GPRMC,034440.694,A,2334.633,N,12029.584,E,077.8,064.8,270323,000.0,W*72
$GPGGA,034441.194,2334.637,N,12029.594,E,1,12,1.0,0.0,M,0.0,M,,*60
$GPGSA,A,3,01,02,03,04,05,06,07,08,09,10,11,12,1.0,1.0,1.0*30
$GPRMC,034441.194,A,2334.637,N,12029.594,E,077.8,064.8,270323,000.0,W*71
$GPGGA,034441.694,2334.642,N,12029.605,E,1,12,1.0,0.0,M,0.0,M,,*6E
$GPGSA,A,3,01,02,03,04,05,06,07,08,09,10,11,12,1.0,1.0,1.0*30
$GPRMC,034441.694,A,2334.642,N,12029.605,E,077.8,064.8,270323,000.0,W*7F
$GPGGA,034442.194,2334.647,N,12029.615,E,1,12,1.0,0.0,M,0.0,M,,*6E
$GPGSA,A,3,01,02,03,04,05,06,07,08,09,10,11,12,1.0,1.0,1.0*30
$GPRMC,034442.194,A,2334.647,N,12029.615,E,077.8,064.8,270323,000.0,W*7F
$GPGGA,034442.694,2334.652,N,12029.626,E,1,12,1.0,0.0,M,0.0,M,,*6D
$GPGSA,A,3,01,02,03,04,05,06,07,08,09,10,11,12,1.0,1.0,1.0*30
$GPRMC,034442.694,A,2334.652,N,12029.626,E,077.8,058.1,270323,000.0,W*7A
$GPGGA,034443.194,2334.658,N,12029.635,E,1,12,1.0,0.0,M,0.0,M,,*63
$GPGSA,A,3,01,02,03,04,05,06,07,08,09,10,11,12,1.0,1.0,1.0*30
$GPRMC,034443.194,A,2334.658,N,12029.635,E,077.8,058.1,270323,000.0,W*74
$GPGGA,034443.694,2334.664,N,12029.645,E,1,12,1.0,0.0,M,0.0,M,,*6C
$GPGSA,A,3,01,02,03,04,05,06,07,08,09,10,11,12,1.0,1.0,1.0*30
$GPRMC,034443.694,A,2334.664,N,12029.645,E,077.8,058.1,270323,000.0,W*7B
$GPGGA,034444.194,2334.670,N,12029.655,E,1,12,1.0,0.0,M,0.0,M,,*68
$GPGSA,A,3,01,02,03,04,05,06,07,08,09,10,11,12,1.0,1.0,1.0*30
$GPRMC,034444.194,A,2334.670,N,12029.655,E,077.8,051.8,270323,000.0,W*7F
$GPGGA,034444.694,2334.677,N,12029.664,E,1,12,1.0,0.0,M,0.0,M,,*6A
$GPGSA,A,3,01,02,03,04,05,06,07,08,09,10,11,12,1.0,1.0,1.0*30
$GPRMC,034444.694,A,2334.677,N,12029.664,E,077.8,051.8,270323,000.0,W*7D
$GPGGA,034445.194,2334.685,N,12029.673,E,1,12,1.0,0.0,M,0.0,M,,*67
$GPGSA,A,3,01,02,03,04,05,06,07,08,09,10,11,12,1.0,1.0,1.0*30
$GPRMC,034445.194,A,2334.685,N,12029.673,E,077.8,051.8,270323,000.0,W*70
$GPGGA,034445.694,2334.692,N,12029.682,E,1,12,1.0,0.0,M,0.0,M,,*68
$GPGSA,A,3,01,02,03,04,05,06,07,08,09,10,11,12,1.0,1.0,1.0*30
$GPRMC,034445.694,A,2334.692,N,12029.682,E,077.8,051.8,270323,000.0,W*7F
$GPGGA,034446.194,2334.699,N,12029.691,E,1,12,1.0,0.0,M,0.0,M,,*65
$GPGSA,A,3,01,02,03,04,05,06,07,08,09,10,11,12,1.0,1.0,1.0*30
$GPRMC,034446.194,A,2334.699,N,12029.691,E,077.8,051.8,270323,000.0,W*72
$GPGGA,034446.694,2334.706,N,12029.700,E,1,12,1.0,0.0,M,0.0,M,,*6C
$GPGSA,A,3,01,02,03,04,05,06,07,08,09,10,11,12,1.0,1.0,1.0*30
$GPRMC,034446.694,A,2334.706,N,12029.700,E,077.8,051.8,270323,000.0,W*7B
$GPGGA,034447.194,2334.713,N,12029.709,E,1,12,1.0,0.0,M,0.0,M,,*67
$GPGSA,A,3,01,02,03,04,05,06,07,08,09,10,11,12,1.0,1.0,1.0*30
$GPRMC,034447.194,A,2334.713,N,12029.709,E,077.8,051.8,270323,000.0,W*70
$GPGGA,034447.694,2334.720,N,12029.718,E,1,12,1.0,0.0,M,0.0,M,,*60
$GPGSA,A,3,01,02,03,04,05,06,07,08,09,10,11,12,1.0,1.0,1.0*30
$GPRMC,034447.694,A,2334.720,N,12029.718,E,077.8,051.8,270323,000.0,W*77
$GPGGA,034448.194,2334.727,N,12029.726,E,1,12,1.0,0.0,M,0.0,M,,*62
$GPGSA,A,3,01,02,03,04,05,06,07,08,09,10,11,12,1.0,1.0,1.0*30
$GPRMC,034448.194,A,2334.727,N,12029.726,E,077.8,051.8,270323,000.0,W*75
$GPGGA,034448.694,2334.734,N,12029.735,E,1,12,1.0,0.0,M,0.0,M,,*65
$GPGSA,A,3,01,02,03,04,05,06,07,08,09,10,11,12,1.0,1.0,1.0*30
$GPRMC,034448.694,A,2334.734,N,12029.735,E,077.8,051.8,270323,000.0,W*72
$GPGGA,034449.194,2334.741,N,12029.744,E,1,12,1.0,0.0,M,0.0,M,,*67
$GPGSA,A,3,01,02,03,04,05,06,07,08,09,10,11,12,1.0,1.0,1.0*30
$GPRMC,034449.194,A,2334.741,N,12029.744,E,077.8,051.8,270323,000.0,W*70
$GPGGA,034449.694,2334.748,N,12029.753,E,1,12,1.0,0.0,M,0.0,M,,*6F
$GPGSA,A,3,01,02,03,04,05,06,07,08,09,10,11,12,1.0,1.0,1.0*30
$GPRMC,034449.694,A,2334.748,N,12029.753,E,077.8,051.8,270323,000.0,W*78
$GPGGA,034450.194,2334.755,N,12029.762,E,1,12,1.0,0.0,M,0.0,M,,*6E
$GPGSA,A,3,01,02,03,04,05,06,07,08,09,10,11,12,1.0,1.0,1.0*30
$GPRMC,034450.194,A,2334.755,N,12029.762,E,077.8,051.8,270323,000.0,W*79
$GPGGA,034450.694,2334.762,N,12029.771,E,1,12,1.0,0.0,M,0.0,M,,*6F
$GPGSA,A,3,01,02,03,04,05,06,07,08,09,10,11,12,1.0,1.0,1.0*30
$GPRMC,034450.694,A,2334.762,N,12029.771,E,077.8,053.3,270323,000.0,W*71
$GPGGA,034451.194,2334.769,N,12029.780,E,1,12,1.0,0.0,M,0.0,M,,*6C
$GPGSA,A,3,01,02,03,04,05,06,07,08,09,10,11,12,1.0,1.0,1.0*30
$GPRMC,034451.194,A,2334.769,N,12029.780,E,077.8,053.3,270323,000.0,W*72
$GPGGA,034451.694,2334.775,N,12029.789,E,1,12,1.0,0.0,M,0.0,M,,*6F
$GPGSA,A,3,01,02,03,04,05,06,07,08,09,10,11,12,1.0,1.0,1.0*30
$GPRMC,034451.694,A,2334.775,N,12029.789,E,077.8,053.3,270323,000.0,W*71
$GPGGA,034452.194,2334.782,N,12029.799,E,1,12,1.0,0.0,M,0.0,M,,*62
$GPGSA,A,3,01,02,03,04,05,06,07,08,09,10,11,12,1.0,1.0,1.0*30
$GPRMC,034452.194,A,2334.782,N,12029.799,E,077.8,053.3,270323,000.0,W*7C
$GPGGA,034452.694,2334.789,N,12029.808,E,1,12,1.0,0.0,M,0.0,M,,*69
$GPGSA,A,3,01,02,03,04,05,06,07,08,09,10,11,12,1.0,1.0,1.0*30
$GPRMC,034452.694,A,2334.789,N,12029.808,E,077.8,053.3,270323,000.0,W*77
$GPGGA,034453.194,2334.796,N,12029.817,E,1,12,1.0,0.0,M,0.0,M,,*6F
$GPGSA,A,3,01,02,03,04,05,06,07,08,09,10,11,12,1.0,1.0,1.0*30
$GPRMC,034453.194,A,2334.796,N,12029.817,E,077.8,053.3,270323,000.0,W*71
$GPGGA,034453.694,2334.803,N,12029.826,E,1,12,1.0,0.0,M,0.0,M,,*69
$GPGSA,A,3,01,02,03,04,05,06,07,08,09,10,11,12,1.0,1.0,1.0*30
$GPRMC,034453.694,A,2334.803,N,12029.826,E,077.8,053.3,270323,000.0,W*77
$GPGGA,034454.194,2334.810,N,12029.835,E,1,12,1.0,0.0,M,0.0,M,,*69
$GPGSA,A,3,01,02,03,04,05,06,07,08,09,10,11,12,1.0,1.0,1.0*30
$GPRMC,034454.194,A,2334.810,N,12029.835,E,077.8,053.3,270323,000.0,W*77
$GPGGA,034454.694,2334.816,N,12029.844,E,1,12,1.0,0.0,M,0.0,M,,*6E
$GPGSA,A,3,01,02,03,04,05,06,07,08,09,10,11,12,1.0,1.0,1.0*30
$GPRMC,034454.694,A,2334.816,N,12029.844,E,077.8,050.5,270323,000.0,W*75
$GPGGA,034455.194,2334.824,N,12029.853,E,1,12,1.0,0.0,M,0.0,M,,*6F
$GPGSA,A,3,01,02,03,04,05,06,07,08,09,10,11,12,1.0,1.0,1.0*30
$GPRMC,034455.194,A,2334.824,N,12029.853,E,077.8,050.5,270323,000.0,W*74
$GPGGA,034455.694,2334.831,N,12029.862,E,1,12,1.0,0.0,M,0.0,M,,*6E
$GPGSA,A,3,01,02,03,04,05,06,07,08,09,10,11,12,1.0,1.0,1.0*30
$GPRMC,034455.694,A,2334.831,N,12029.862,E,077.8,050.5,270323,000.0,W*75
$GPGGA,034456.194,2334.838,N,12029.870,E,1,12,1.0,0.0,M,0.0,M,,*60
$GPGSA,A,3,01,02,03,04,05,06,07,08,09,10,11,12,1.0,1.0,1.0*30
$GPRMC,034456.194,A,2334.838,N,12029.870,E,077.8,050.5,270323,000.0,W*7B
$GPGGA,034456.694,2334.845,N,12029.879,E,1,12,1.0,0.0,M,0.0,M,,*64
$GPGSA,A,3,01,02,03,04,05,06,07,08,09,10,11,12,1.0,1.0,1.0*30
$GPRMC,034456.694,A,2334.845,N,12029.879,E,077.8,050.5,270323,000.0,W*7F
$GPGGA,034457.194,2334.852,N,12029.888,E,1,12,1.0,0.0,M,0.0,M,,*6A
$GPGSA,A,3,01,02,03,04,05,06,07,08,09,10,11,12,1.0,1.0,1.0*30
$GPRMC,034457.194,A,2334.852,N,12029.888,E,077.8,065.8,270323,000.0,W*7A
$GPGGA,034457.694,2334.857,N,12029.899,E,1,12,1.0,0.0,M,0.0,M,,*68
$GPGSA,A,3,01,02,03,04,05,06,07,08,09,10,11,12,1.0,1.0,1.0*30
$GPRMC,034457.694,A,2334.857,N,12029.899,E,077.8,065.8,270323,000.0,W*78
$GPGGA,034458.194,2334.862,N,12029.909,E,1,12,1.0,0.0,M,0.0,M,,*6E
$GPGSA,A,3,01,02,03,04,05,06,07,08,09,10,11,12,1.0,1.0,1.0*30
$GPRMC,034458.194,A,2334.862,N,12029.909,E,077.8,072.6,270323,000.0,W*76
$GPGGA,034458.694,2334.865,N,12029.920,E,1,12,1.0,0.0,M,0.0,M,,*65
$GPGSA,A,3,01,02,03,04,05,06,07,08,09,10,11,12,1.0,1.0,1.0*30
$GPRMC,034458.694,A,2334.865,N,12029.920,E,077.8,077.8,270323,000.0,W*76
$GPGGA,034459.194,2334.868,N,12029.932,E,1,12,1.0,0.0,M,0.0,M,,*6D
$GPGSA,A,3,01,02,03,04,05,06,07,08,09,10,11,12,1.0,1.0,1.0*30
$GPRMC,034459.194,A,2334.868,N,12029.932,E,077.8,084.8,270323,000.0,W*72
$GPGGA,034459.694,2334.869,N,12029.943,E,1,12,1.0,0.0,M,0.0,M,,*6D
$GPGSA,A,3,01,02,03,04,05,06,07,08,09,10,11,12,1.0,1.0,1.0*30
$GPRMC,034459.694,A,2334.869,N,12029.943,E,077.8,084.1,270323,000.0,W*7B
$GPGGA,034500.194,2334.870,N,12029.955,E,1,12,1.0,0.0,M,0.0,M,,*68
$GPGSA,A,3,01,02,03,04,05,06,07,08,09,10,11,12,1.0,1.0,1.0*30
$GPRMC,034500.194,A,2334.870,N,12029.955,E,077.8,099.5,270323,000.0,W*76
$GPGGA,034500.694,2334.868,N,12029.967,E,1,12,1.0,0.0,M,0.0,M,,*67
$GPGSA,A,3,01,02,03,04,05,06,07,08,09,10,11,12,1.0,1.0,1.0*30
$GPRMC,034500.694,A,2334.868,N,12029.967,E,077.8,099.5,270323,000.0,W*79
$GPGGA,034501.194,2334.866,N,12029.978,E,1,12,1.0,0.0,M,0.0,M,,*61
$GPGSA,A,3,01,02,03,04,05,06,07,08,09,10,11,12,1.0,1.0,1.0*30
$GPRMC,034501.194,A,2334.866,N,12029.978,E,077.8,106.2,270323,000.0,W*7F
$GPGGA,034501.694,2334.863,N,12029.990,E,1,12,1.0,0.0,M,0.0,M,,*65
$GPGSA,A,3,01,02,03,04,05,06,07,08,09,10,11,12,1.0,1.0,1.0*30
$GPRMC,034501.694,A,2334.863,N,12029.990,E,077.8,106.2,270323,000.0,W*7B
$GPGGA,034502.194,2334.860,N,12030.001,E,1,12,1.0,0.0,M,0.0,M,,*6B
$GPGSA,A,3,01,02,03,04,05,06,07,08,09,10,11,12,1.0,1.0,1.0*30
$GPRMC,034502.194,A,2334.860,N,12030.001,E,077.8,106.2,270323,000.0,W*75
$GPGGA,034502.694,2334.856,N,12030.012,E,1,12,1.0,0.0,M,0.0,M,,*6B
$GPGSA,A,3,01,02,03,04,05,06,07,08,09,10,11,12,1.0,1.0,1.0*30
$GPRMC,034502.694,A,2334.856,N,12030.012,E,077.8,129.2,270323,000.0,W*78
$GPGGA,034503.194,2334.849,N,12030.021,E,1,12,1.0,0.0,M,0.0,M,,*63
$GPGSA,A,3,01,02,03,04,05,06,07,08,09,10,11,12,1.0,1.0,1.0*30
$GPRMC,034503.194,A,2334.849,N,12030.021,E,077.8,129.2,270323,000.0,W*70
$GPGGA,034503.694,2334.842,N,12030.030,E,1,12,1.0,0.0,M,0.0,M,,*6F
$GPGSA,A,3,01,02,03,04,05,06,07,08,09,10,11,12,1.0,1.0,1.0*30
$GPRMC,034503.694,A,2334.842,N,12030.030,E,077.8,124.1,270323,000.0,W*72
$GPGGA,034504.194,2334.836,N,12030.039,E,1,12,1.0,0.0,M,0.0,M,,*65
$GPGSA,A,3,01,02,03,04,05,06,07,08,09,10,11,12,1.0,1.0,1.0*30
$GPRMC,034504.194,A,2334.836,N,12030.039,E,077.8,124.1,270323,000.0,W*78
$GPGGA,034504.694,2334.829,N,12030.049,E,1,12,1.0,0.0,M,0.0,M,,*6B
$GPGSA,A,3,01,02,03,04,05,06,07,08,09,10,11,12,1.0,1.0,1.0*30
$GPRMC,034504.694,A,2334.829,N,12030.049,E,077.8,116.0,270323,000.0,W*76
$GPGGA,034505.194,2334.824,N,12030.059,E,1,12,1.0,0.0,M,0.0,M,,*61
$GPGSA,A,3,01,02,03,04,05,06,07,08,09,10,11,12,1.0,1.0,1.0*30
$GPRMC,034505.194,A,2334.824,N,12030.059,E,077.8,116.0,270323,000.0,W*7C
$GPGGA,034505.694,2334.819,N,12030.069,E,1,12,1.0,0.0,M,0.0,M,,*6B
$GPGSA,A,3,01,02,03,04,05,06,07,08,09,10,11,12,1.0,1.0,1.0*30
$GPRMC,034505.694,A,2334.819,N,12030.069,E,077.8,116.0,270323,000.0,W*76
$GPGGA,034506.194,2334.814,N,12030.080,E,1,12,1.0,0.0,M,0.0,M,,*65
$GPGSA,A,3,01,02,03,04,05,06,07,08,09,10,11,12,1.0,1.0,1.0*30
$GPRMC,034506.194,A,2334.814,N,12030.080,E,077.8,129.8,270323,000.0,W*7C
$GPGGA,034506.694,2334.807,N,12030.088,E,1,12,1.0,0.0,M,0.0,M,,*68
$GPGSA,A,3,01,02,03,04,05,06,07,08,09,10,11,12,1.0,1.0,1.0*30
$GPRMC,034506.694,A,2334.807,N,12030.088,E,077.8,129.8,270323,000.0,W*71
$GPGGA,034507.194,2334.800,N,12030.097,E,1,12,1.0,0.0,M,0.0,M,,*67
$GPGSA,A,3,01,02,03,04,05,06,07,08,09,10,11,12,1.0,1.0,1.0*30
$GPRMC,034507.194,A,2334.800,N,12030.097,E,077.8,129.8,270323,000.0,W*7E
$GPGGA,034507.694,2334.792,N,12030.106,E,1,12,1.0,0.0,M,0.0,M,,*6D
$GPGSA,A,3,01,02,03,04,05,06,07,08,09,10,11,12,1.0,1.0,1.0*30
$GPRMC,034507.694,A,2334.792,N,12030.106,E,077.8,119.6,270323,000.0,W*79
$GPGGA,034508.194,2334.787,N,12030.116,E,1,12,1.0,0.0,M,0.0,M,,*60
$GPGSA,A,3,01,02,03,04,05,06,07,08,09,10,11,12,1.0,1.0,1.0*30
$GPRMC,034508.194,A,2334.787,N,12030.116,E,077.8,119.6,270323,000.0,W*74
$GPGGA,034508.694,2334.781,N,12030.126,E,1,12,1.0,0.0,M,0.0,M,,*62
$GPGSA,A,3,01,02,03,04,05,06,07,08,09,10,11,12,1.0,1.0,1.0*30
$GPRMC,034508.694,A,2334.781,N,12030.126,E,077.8,119.6,270323,000.0,W*76
$GPGGA,034509.194,2334.775,N,12030.136,E,1,12,1.0,0.0,M,0.0,M,,*6E
$GPGSA,A,3,01,02,03,04,05,06,07,08,09,10,11,12,1.0,1.0,1.0*30
$GPRMC,034509.194,A,2334.775,N,12030.136,E,077.8,119.6,270323,000.0,W*7A
$GPGGA,034509.694,2334.770,N,12030.146,E,1,12,1.0,0.0,M,0.0,M,,*6B
$GPGSA,A,3,01,02,03,04,05,06,07,08,09,10,11,12,1.0,1.0,1.0*30
$GPRMC,034509.694,A,2334.770,N,12030.146,E,077.8,112.1,270323,000.0,W*73
$GPGGA,034510.194,2334.765,N,12030.157,E,1,12,1.0,0.0,M,0.0,M,,*60
$GPGSA,A,3,01,02,03,04,05,06,07,08,09,10,11,12,1.0,1.0,1.0*30
$GPRMC,034510.194,A,2334.765,N,12030.157,E,077.8,112.1,270323,000.0,W*78
$GPGGA,034510.694,2334.761,N,12030.167,E,1,12,1.0,0.0,M,0.0,M,,*60
$GPGSA,A,3,01,02,03,04,05,06,07,08,09,10,11,12,1.0,1.0,1.0*30
$GPRMC,034510.694,A,2334.761,N,12030.167,E,077.8,112.1,270323,000.0,W*78
$GPGGA,034511.194,2334.757,N,12030.178,E,1,12,1.0,0.0,M,0.0,M,,*6D
$GPGSA,A,3,01,02,03,04,05,06,07,08,09,10,11,12,1.0,1.0,1.0*30
$GPRMC,034511.194,A,2334.757,N,12030.178,E,077.8,112.1,270323,000.0,W*75
$GPGGA,034511.694,2334.752,N,12030.189,E,1,12,1.0,0.0,M,0.0,M,,*61
$GPGSA,A,3,01,02,03,04,05,06,07,08,09,10,11,12,1.0,1.0,1.0*30
$GPRMC,034511.694,A,2334.752,N,12030.189,E,077.8,095.4,270323,000.0,W*72
$GPGGA,034512.194,2334.751,N,12030.201,E,1,12,1.0,0.0,M,0.0,M,,*65
$GPGSA,A,3,01,02,03,04,05,06,07,08,09,10,11,12,1.0,1.0,1.0*30
$GPRMC,034512.194,A,2334.751,N,12030.201,E,077.8,095.4,270323,000.0,W*76
$GPGGA,034512.694,2334.750,N,12030.212,E,1,12,1.0,0.0,M,0.0,M,,*61
$GPGSA,A,3,01,02,03,04,05,06,07,08,09,10,11,12,1.0,1.0,1.0*30
$GPRMC,034512.694,A,2334.750,N,12030.212,E,077.8,095.4,270323,000.0,W*72
$GPGGA,034513.194,2334.749,N,12030.224,E,1,12,1.0,0.0,M,0.0,M,,*6A
$GPGSA,A,3,01,02,03,04,05,06,07,08,09,10,11,12,1.0,1.0,1.0*30
$GPRMC,034513.194,A,2334.749,N,12030.224,E,077.8,095.4,270323,000.0,W*79
$GPGGA,034513.694,2334.748,N,12030.236,E,1,12,1.0,0.0,M,0.0,M,,*6F
$GPGSA,A,3,01,02,03,04,05,06,07,08,09,10,11,12,1.0,1.0,1.0*30
$GPRMC,034513.694,A,2334.748,N,12030.236,E,077.8,089.4,270323,000.0,W*71
$GPGGA,034514.194,2334.748,N,12030.248,E,1,12,1.0,0.0,M,0.0,M,,*66
$GPGSA,A,3,01,02,03,04,05,06,07,08,09,10,11,12,1.0,1.0,1.0*30
$GPRMC,034514.194,A,2334.748,N,12030.248,E,077.8,089.4,270323,000.0,W*78
$GPGGA,034514.694,2334.748,N,12030.259,E,1,12,1.0,0.0,M,0.0,M,,*61
$GPGSA,A,3,01,02,03,04,05,06,07,08,09,10,11,12,1.0,1.0,1.0*30
$GPRMC,034514.694,A,2334.748,N,12030.259,E,077.8,089.4,270323,000.0,W*7F
$GPGGA,034515.194,2334.748,N,12030.271,E,1,12,1.0,0.0,M,0.0,M,,*6D
$GPGSA,A,3,01,02,03,04,05,06,07,08,09,10,11,12,1.0,1.0,1.0*30
$GPRMC,034515.194,A,2334.748,N,12030.271,E,077.8,089.4,270323,000.0,W*73
$GPGGA,034515.694,2334.748,N,12030.283,E,1,12,1.0,0.0,M,0.0,M,,*67
$GPGSA,A,3,01,02,03,04,05,06,07,08,09,10,11,12,1.0,1.0,1.0*30
$GPRMC,034515.694,A,2334.748,N,12030.283,E,077.8,089.4,270323,000.0,W*79
$GPGGA,034516.194,2334.748,N,12030.295,E,1,12,1.0,0.0,M,0.0,M,,*64
$GPGSA,A,3,01,02,03,04,05,06,07,08,09,10,11,12,1.0,1.0,1.0*30
$GPRMC,034516.194,A,2334.748,N,12030.295,E,077.8,089.4,270323,000.0,W*7A
$GPGGA,034516.694,2334.748,N,12030.307,E,1,12,1.0,0.0,M,0.0,M,,*69
$GPGSA,A,3,01,02,03,04,05,06,07,08,09,10,11,12,1.0,1.0,1.0*30
$GPRMC,034516.694,A,2334.748,N,12030.307,E,077.8,094.6,270323,000.0,W*79
$GPGGA,034517.194,2334.747,N,12030.318,E,1,12,1.0,0.0,M,0.0,M,,*6E
$GPGSA,A,3,01,02,03,04,05,06,07,08,09,10,11,12,1.0,1.0,1.0*30
$GPRMC,034517.194,A,2334.747,N,12030.318,E,077.8,030.4,270323,000.0,W*72
$GPGGA,034517.694,2334.757,N,12030.324,E,1,12,1.0,0.0,M,0.0,M,,*67
$GPGSA,A,3,01,02,03,04,05,06,07,08,09,10,11,12,1.0,1.0,1.0*30
$GPRMC,034517.694,A,2334.757,N,12030.324,E,077.8,030.4,270323,000.0,W*7B
$GPGGA,034518.194,2334.766,N,12030.329,E,1,12,1.0,0.0,M,0.0,M,,*60
$GPGSA,A,3,01,02,03,04,05,06,07,08,09,10,11,12,1.0,1.0,1.0*30
$GPRMC,034518.194,A,2334.766,N,12030.329,E,077.8,030.4,270323,000.0,W*7C
$GPGGA,034518.694,2334.776,N,12030.335,E,1,12,1.0,0.0,M,0.0,M,,*6B
$GPGSA,A,3,01,02,03,04,05,06,07,08,09,10,11,12,1.0,1.0,1.0*30
$GPRMC,034518.694,A,2334.776,N,12030.335,E,077.8,025.5,270323,000.0,W*72
$GPGGA,034519.194,2334.786,N,12030.340,E,1,12,1.0,0.0,M,0.0,M,,*60
$GPGSA,A,3,01,02,03,04,05,06,07,08,09,10,11,12,1.0,1.0,1.0*30
$GPRMC,034519.194,A,2334.786,N,12030.340,E,077.8,025.5,270323,000.0,W*79
$GPGGA,034519.694,2334.796,N,12030.344,E,1,12,1.0,0.0,M,0.0,M,,*62
$GPGSA,A,3,01,02,03,04,05,06,07,08,09,10,11,12,1.0,1.0,1.0*30
$GPRMC,034519.694,A,2334.796,N,12030.344,E,077.8,025.5,270323,000.0,W*7B
$GPGGA,034520.194,2334.806,N,12030.349,E,1,12,1.0,0.0,M,0.0,M,,*64
$GPGSA,A,3,01,02,03,04,05,06,07,08,09,10,11,12,1.0,1.0,1.0*30
$GPRMC,034520.194,A,2334.806,N,12030.349,E,077.8,087.4,270323,000.0,W*74
$GPGGA,034520.694,2334.806,N,12030.361,E,1,12,1.0,0.0,M,0.0,M,,*69
$GPGSA,A,3,01,02,03,04,05,06,07,08,09,10,11,12,1.0,1.0,1.0*30
$GPRMC,034520.694,A,2334.806,N,12030.361,E,077.8,111.3,270323,000.0,W*70
$GPGGA,034521.194,2334.802,N,12030.372,E,1,12,1.0,0.0,M,0.0,M,,*69
$GPGSA,A,3,01,02,03,04,05,06,07,08,09,10,11,12,1.0,1.0,1.0*30
$GPRMC,034521.194,A,2334.802,N,12030.372,E,077.8,111.3,270323,000.0,W*70
$GPGGA,034521.694,2334.798,N,12030.383,E,1,12,1.0,0.0,M,0.0,M,,*6C
$GPGSA,A,3,01,02,03,04,05,06,07,08,09,10,11,12,1.0,1.0,1.0*30
$GPRMC,034521.694,A,2334.798,N,12030.383,E,077.8,111.3,270323,000.0,W*75
$GPGGA,034522.194,2334.793,N,12030.393,E,1,12,1.0,0.0,M,0.0,M,,*62
$GPGSA,A,3,01,02,03,04,05,06,07,08,09,10,11,12,1.0,1.0,1.0*30
$GPRMC,034522.194,A,2334.793,N,12030.393,E,077.8,111.3,270323,000.0,W*7B
$GPGGA,034522.694,2334.789,N,12030.404,E,1,12,1.0,0.0,M,0.0,M,,*67
$GPGSA,A,3,01,02,03,04,05,06,07,08,09,10,11,12,1.0,1.0,1.0*30
$GPRMC,034522.694,A,2334.789,N,12030.404,E,077.8,111.3,270323,000.0,W*7E
$GPGGA,034523.194,2334.785,N,12030.415,E,1,12,1.0,0.0,M,0.0,M,,*6D
$GPGSA,A,3,01,02,03,04,05,06,07,08,09,10,11,12,1.0,1.0,1.0*30
$GPRMC,034523.194,A,2334.785,N,12030.415,E,077.8,111.3,270323,000.0,W*74
$GPGGA,034523.694,2334.781,N,12030.426,E,1,12,1.0,0.0,M,0.0,M,,*6E
$GPGSA,A,3,01,02,03,04,05,06,07,08,09,10,11,12,1.0,1.0,1.0*30
$GPRMC,034523.694,A,2334.781,N,12030.426,E,077.8,111.3,270323,000.0,W*77
$GPGGA,034524.194,2334.777,N,12030.437,E,1,12,1.0,0.0,M,0.0,M,,*67
$GPGSA,A,3,01,02,03,04,05,06,07,08,09,10,11,12,1.0,1.0,1.0*30
$GPRMC,034524.194,A,2334.777,N,12030.437,E,077.8,111.3,270323,000.0,W*7E
$GPGGA,034524.694,2334.772,N,12030.448,E,1,12,1.0,0.0,M,0.0,M,,*6D
$GPGSA,A,3,01,02,03,04,05,06,07,08,09,10,11,12,1.0,1.0,1.0*30
$GPRMC,034524.694,A,2334.772,N,12030.448,E,077.8,111.3,270323,000.0,W*74
$GPGGA,034525.194,2334.768,N,12030.458,E,1,12,1.0,0.0,M,0.0,M,,*61
$GPGSA,A,3,01,02,03,04,05,06,07,08,09,10,11,12,1.0,1.0,1.0*30
$GPRMC,034525.194,A,2334.768,N,12030.458,E,077.8,025.8,270323,000.0,W*75
$GPGGA,034525.694,2334.778,N,12030.463,E,1,12,1.0,0.0,M,0.0,M,,*6F
$GPGSA,A,3,01,02,03,04,05,06,07,08,09,10,11,12,1.0,1.0,1.0*30
$GPRMC,034525.694,A,2334.778,N,12030.463,E,077.8,025.8,270323,000.0,W*7B
$GPGGA,034526.194,2334.788,N,12030.468,E,1,12,1.0,0.0,M,0.0,M,,*6F
$GPGSA,A,3,01,02,03,04,05,06,07,08,09,10,11,12,1.0,1.0,1.0*30
$GPRMC,034526.194,A,2334.788,N,12030.468,E,077.8,025.8,270323,000.0,W*7B
$GPGGA,034526.694,2334.798,N,12030.473,E,1,12,1.0,0.0,M,0.0,M,,*63
$GPGSA,A,3,01,02,03,04,05,06,07,08,09,10,11,12,1.0,1.0,1.0*30
$GPRMC,034526.694,A,2334.798,N,12030.473,E,077.8,025.8,270323,000.0,W*77
$GPGGA,034527.194,2334.808,N,12030.478,E,1,12,1.0,0.0,M,0.0,M,,*68
$GPGSA,A,3,01,02,03,04,05,06,07,08,09,10,11,12,1.0,1.0,1.0*30
$GPRMC,034527.194,A,2334.808,N,12030.478,E,077.8,025.8,270323,000.0,W*7C
$GPGGA,034527.694,2334.817,N,12030.482,E,1,12,1.0,0.0,M,0.0,M,,*64
$GPGSA,A,3,01,02,03,04,05,06,07,08,09,10,11,12,1.0,1.0,1.0*30
$GPRMC,034527.694,A,2334.817,N,12030.482,E,077.8,025.8,270323,000.0,W*70
$GPGGA,034528.194,2334.827,N,12030.487,E,1,12,1.0,0.0,M,0.0,M,,*6A
$GPGSA,A,3,01,02,03,04,05,06,07,08,09,10,11,12,1.0,1.0,1.0*30
$GPRMC,034528.194,A,2334.827,N,12030.487,E,077.8,025.8,270323,000.0,W*7E
$GPGGA,034528.694,2334.837,N,12030.492,E,1,12,1.0,0.0,M,0.0,M,,*68
$GPGSA,A,3,01,02,03,04,05,06,07,08,09,10,11,12,1.0,1.0,1.0*30
$GPRMC,034528.694,A,2334.837,N,12030.492,E,077.8,025.8,270323,000.0,W*7C
$GPGGA,034529.194,2334.847,N,12030.497,E,1,12,1.0,0.0,M,0.0,M,,*6C
$GPGSA,A,3,01,02,03,04,05,06,07,08,09,10,11,12,1.0,1.0,1.0*30
$GPRMC,034529.194,A,2334.847,N,12030.497,E,077.8,025.8,270323,000.0,W*78
$GPGGA,034529.694,2334.857,N,12030.501,E,1,12,1.0,0.0,M,0.0,M,,*64
$GPGSA,A,3,01,02,03,04,05,06,07,08,09,10,11,12,1.0,1.0,1.0*30
$GPRMC,034529.694,A,2334.857,N,12030.501,E,077.8,025.8,270323,000.0,W*70
$GPGGA,034530.194,2334.867,N,12030.506,E,1,12,1.0,0.0,M,0.0,M,,*6F
$GPGSA,A,3,01,02,03,04,05,06,07,08,09,10,11,12,1.0,1.0,1.0*30
$GPRMC,034530.194,A,2334.867,N,12030.506,E,077.8,025.8,270323,000.0,W*7B
$GPGGA,034530.694,2334.877,N,12030.511,E,1,12,1.0,0.0,M,0.0,M,,*6F
$GPGSA,A,3,01,02,03,04,05,06,07,08,09,10,11,12,1.0,1.0,1.0*30
$GPRMC,034530.694,A,2334.877,N,12030.511,E,077.8,025.8,270323,000.0,W*7B
$GPGGA,034531.194,2334.886,N,12030.516,E,1,12,1.0,0.0,M,0.0,M,,*60
$GPGSA,A,3,01,02,03,04,05,06,07,08,09,10,11,12,1.0,1.0,1.0*30
$GPRMC,034531.194,A,2334.886,N,12030.516,E,077.8,025.8,270323,000.0,W*74
$GPGGA,034531.694,2334.896,N,12030.521,E,1,12,1.0,0.0,M,0.0,M,,*62
$GPGSA,A,3,01,02,03,04,05,06,07,08,09,10,11,12,1.0,1.0,1.0*30
$GPRMC,034531.694,A,2334.896,N,12030.521,E,077.8,025.8,270323,000.0,W*76
$GPGGA,034532.194,2334.906,N,12030.525,E,1,12,1.0,0.0,M,0.0,M,,*6A
$GPGSA,A,3,01,02,03,04,05,06,07,08,09,10,11,12,1.0,1.0,1.0*30
$GPRMC,034532.194,A,2334.906,N,12030.525,E,077.8,025.8,270323,000.0,W*7E
$GPGGA,034532.694,2334.916,N,12030.530,E,1,12,1.0,0.0,M,0.0,M,,*68
$GPGSA,A,3,01,02,03,04,05,06,07,08,09,10,11,12,1.0,1.0,1.0*30
$GPRMC,034532.694,A,2334.916,N,12030.530,E,077.8,025.8,270323,000.0,W*7C
$GPGGA,034533.194,2334.926,N,12030.535,E,1,12,1.0,0.0,M,0.0,M,,*68
$GPGSA,A,3,01,02,03,04,05,06,07,08,09,10,11,12,1.0,1.0,1.0*30
$GPRMC,034533.194,A,2334.926,N,12030.535,E,077.8,025.8,270323,000.0,W*7C
$GPGGA,034533.694,2334.936,N,12030.540,E,1,12,1.0,0.0,M,0.0,M,,*6C
$GPGSA,A,3,01,02,03,04,05,06,07,08,09,10,11,12,1.0,1.0,1.0*30
$GPRMC,034533.694,A,2334.936,N,12030.540,E,077.8,025.8,270323,000.0,W*78
$GPGGA,034534.194,2334.946,N,12030.545,E,1,12,1.0,0.0,M,0.0,M,,*6E
$GPGSA,A,3,01,02,03,04,05,06,07,08,09,10,11,12,1.0,1.0,1.0*30
$GPRMC,034534.194,A,2334.946,N,12030.545,E,077.8,025.8,270323,000.0,W*7A
$GPGGA,034534.694,2334.955,N,12030.549,E,1,12,1.0,0.0,M,0.0,M,,*67
$GPGSA,A,3,01,02,03,04,05,06,07,08,09,10,11,12,1.0,1.0,1.0*30
$GPRMC,034534.694,A,2334.955,N,12030.549,E,077.8,082.6,270323,000.0,W*70
$GPGGA,034535.194,2334.957,N,12030.561,E,1,12,1.0,0.0,M,0.0,M,,*69
$GPGSA,A,3,01,02,03,04,05,06,07,08,09,10,11,12,1.0,1.0,1.0*30
$GPRMC,034535.194,A,2334.957,N,12030.561,E,077.8,112.6,270323,000.0,W*76
$GPGGA,034535.694,2334.953,N,12030.572,E,1,12,1.0,0.0,M,0.0,M,,*68
$GPGSA,A,3,01,02,03,04,05,06,07,08,09,10,11,12,1.0,1.0,1.0*30
$GPRMC,034535.694,A,2334.953,N,12030.572,E,077.8,112.6,270323,000.0,W*77
$GPGGA,034536.194,2334.948,N,12030.582,E,1,12,1.0,0.0,M,0.0,M,,*69
$GPGSA,A,3,01,02,03,04,05,06,07,08,09,10,11,12,1.0,1.0,1.0*30
$GPRMC,034536.194,A,2334.948,N,12030.582,E,077.8,112.6,270323,000.0,W*76
$GPGGA,034536.694,2334.944,N,12030.593,E,1,12,1.0,0.0,M,0.0,M,,*62
$GPGSA,A,3,01,02,03,04,05,06,07,08,09,10,11,12,1.0,1.0,1.0*30
$GPRMC,034536.694,A,2334.944,N,12030.593,E,077.8,112.6,270323,000.0,W*7D
$GPGGA,034537.194,2334.939,N,12030.604,E,1,12,1.0,0.0,M,0.0,M,,*63
$GPGSA,A,3,01,02,03,04,05,06,07,08,09,10,11,12,1.0,1.0,1.0*30
$GPRMC,034537.194,A,2334.939,N,12030.604,E,077.8,112.6,270323,000.0,W*7C
$GPGGA,034537.694,2334.935,N,12030.615,E,1,12,1.0,0.0,M,0.0,M,,*68
$GPGSA,A,3,01,02,03,04,05,06,07,08,09,10,11,12,1.0,1.0,1.0*30
$GPRMC,034537.694,A,2334.935,N,12030.615,E,077.8,112.6,270323,000.0,W*77
$GPGGA,034538.194,2334.930,N,12030.625,E,1,12,1.0,0.0,M,0.0,M,,*66
$GPGSA,A,3,01,02,03,04,05,06,07,08,09,10,11,12,1.0,1.0,1.0*30
$GPRMC,034538.194,A,2334.930,N,12030.625,E,077.8,112.6,270323,000.0,W*79
$GPGGA,034538.694,2334.926,N,12030.636,E,1,12,1.0,0.0,M,0.0,M,,*64
$GPGSA,A,3,01,02,03,04,05,06,07,08,09,10,11,12,1.0,1.0,1.0*30
$GPRMC,034538.694,A,2334.926,N,12030.636,E,077.8,111.2,270323,000.0,W*7C
$GPGGA,034539.194,2334.922,N,12030.647,E,1,12,1.0,0.0,M,0.0,M,,*60
$GPGSA,A,3,01,02,03,04,05,06,07,08,09,10,11,12,1.0,1.0,1.0*30
$GPRMC,034539.194,A,2334.922,N,12030.647,E,077.8,111.2,270323,000.0,W*78
$GPGGA,034539.694,2334.917,N,12030.658,E,1,12,1.0,0.0,M,0.0,M,,*6F
$GPGSA,A,3,01,02,03,04,05,06,07,08,09,10,11,12,1.0,1.0,1.0*30
$GPRMC,034539.694,A,2334.917,N,12030.658,E,077.8,111.2,270323,000.0,W*77
$GPGGA,034540.194,2334.913,N,12030.669,E,1,12,1.0,0.0,M,0.0,M,,*60
$GPGSA,A,3,01,02,03,04,05,06,07,08,09,10,11,12,1.0,1.0,1.0*30
$GPRMC,034540.194,A,2334.913,N,12030.669,E,077.8,070.3,270323,000.0,W*7F
$GPGGA,034540.694,2334.917,N,12030.679,E,1,12,1.0,0.0,M,0.0,M,,*62
$GPGSA,A,3,01,02,03,04,05,06,07,08,09,10,11,12,1.0,1.0,1.0*30
$GPRMC,034540.694,A,2334.917,N,12030.679,E,077.8,040.7,270323,000.0,W*7A
$GPGGA,034541.194,2334.926,N,12030.687,E,1,12,1.0,0.0,M,0.0,M,,*67
$GPGSA,A,3,01,02,03,04,05,06,07,08,09,10,11,12,1.0,1.0,1.0*30
$GPRMC,034541.194,A,2334.926,N,12030.687,E,077.8,040.7,270323,000.0,W*7F
$GPGGA,034541.694,2334.934,N,12030.694,E,1,12,1.0,0.0,M,0.0,M,,*61
$GPGSA,A,3,01,02,03,04,05,06,07,08,09,10,11,12,1.0,1.0,1.0*30
$GPRMC,034541.694,A,2334.934,N,12030.694,E,077.8,040.7,270323,000.0,W*79
$GPGGA,034542.194,2334.942,N,12030.701,E,1,12,1.0,0.0,M,0.0,M,,*69
$GPGSA,A,3,01,02,03,04,05,06,07,08,09,10,11,12,1.0,1.0,1.0*30
$GPRMC,034542.194,A,2334.942,N,12030.701,E,077.8,040.7,270323,000.0,W*71
$GPGGA,034542.694,2334.951,N,12030.709,E,1,12,1.0,0.0,M,0.0,M,,*64
$GPGSA,A,3,01,02,03,04,05,06,07,08,09,10,11,12,1.0,1.0,1.0*30
$GPRMC,034542.694,A,2334.951,N,12030.709,E,077.8,040.7,270323,000.0,W*7C
$GPGGA,034543.194,2334.959,N,12030.716,E,1,12,1.0,0.0,M,0.0,M,,*64
$GPGSA,A,3,01,02,03,04,05,06,07,08,09,10,11,12,1.0,1.0,1.0*30
$GPRMC,034543.194,A,2334.959,N,12030.716,E,077.8,040.7,270323,000.0,W*7C
$GPGGA,034543.694,2334.968,N,12030.723,E,1,12,1.0,0.0,M,0.0,M,,*67
$GPGSA,A,3,01,02,03,04,05,06,07,08,09,10,11,12,1.0,1.0,1.0*30
$GPRMC,034543.694,A,2334.968,N,12030.723,E,077.8,040.7,270323,000.0,W*7F
$GPGGA,034544.194,2334.976,N,12030.731,E,1,12,1.0,0.0,M,0.0,M,,*6B
$GPGSA,A,3,01,02,03,04,05,06,07,08,09,10,11,12,1.0,1.0,1.0*30
$GPRMC,034544.194,A,2334.976,N,12030.731,E,077.8,040.7,270323,000.0,W*73
$GPGGA,034544.694,2334.985,N,12030.738,E,1,12,1.0,0.0,M,0.0,M,,*69
$GPGSA,A,3,01,02,03,04,05,06,07,08,09,10,11,12,1.0,1.0,1.0*30
$GPRMC,034544.694,A,2334.985,N,12030.738,E,077.8,040.7,270323,000.0,W*71
$GPGGA,034545.194,2334.993,N,12030.745,E,1,12,1.0,0.0,M,0.0,M,,*62
$GPGSA,A,3,01,02,03,04,05,06,07,08,09,10,11,12,1.0,1.0,1.0*30
$GPRMC,034545.194,A,2334.993,N,12030.745,E,077.8,046.6,270323,000.0,W*7D
$GPGGA,034545.694,2335.001,N,12030.753,E,1,12,1.0,0.0,M,0.0,M,,*61
$GPGSA,A,3,01,02,03,04,05,06,07,08,09,10,11,12,1.0,1.0,1.0*30
$GPRMC,034545.694,A,2335.001,N,12030.753,E,077.8,046.6,270323,000.0,W*7E
$GPGGA,034546.194,2335.009,N,12030.762,E,1,12,1.0,0.0,M,0.0,M,,*6F
$GPGSA,A,3,01,02,03,04,05,06,07,08,09,10,11,12,1.0,1.0,1.0*30
$GPRMC,034546.194,A,2335.009,N,12030.762,E,077.8,046.6,270323,000.0,W*70
$GPGGA,034546.694,2335.017,N,12030.770,E,1,12,1.0,0.0,M,0.0,M,,*64
$GPGSA,A,3,01,02,03,04,05,06,07,08,09,10,11,12,1.0,1.0,1.0*30
$GPRMC,034546.694,A,2335.017,N,12030.770,E,077.8,046.6,270323,000.0,W*7B
$GPGGA,034547.194,2335.024,N,12030.778,E,1,12,1.0,0.0,M,0.0,M,,*6A
$GPGSA,A,3,01,02,03,04,05,06,07,08,09,10,11,12,1.0,1.0,1.0*30
$GPRMC,034547.194,A,2335.024,N,12030.778,E,077.8,046.6,270323,000.0,W*75
$GPGGA,034547.694,2335.032,N,12030.786,E,1,12,1.0,0.0,M,0.0,M,,*6B
$GPGSA,A,3,01,02,03,04,05,06,07,08,09,10,11,12,1.0,1.0,1.0*30
$GPRMC,034547.694,A,2335.032,N,12030.786,E,077.8,046.6,270323,000.0,W*74
$GPGGA,034548.194,2335.040,N,12030.794,E,1,12,1.0,0.0,M,0.0,M,,*65
$GPGSA,A,3,01,02,03,04,05,06,07,08,09,10,11,12,1.0,1.0,1.0*30
$GPRMC,034548.194,A,2335.040,N,12030.794,E,077.8,046.6,270323,000.0,W*7A
$GPGGA,034548.694,2335.047,N,12030.803,E,1,12,1.0,0.0,M,0.0,M,,*64
$GPGSA,A,3,01,02,03,04,05,06,07,08,09,10,11,12,1.0,1.0,1.0*30
$GPRMC,034548.694,A,2335.047,N,12030.803,E,077.8,046.6,270323,000.0,W*7B
$GPGGA,034549.194,2335.055,N,12030.811,E,1,12,1.0,0.0,M,0.0,M,,*62
$GPGSA,A,3,01,02,03,04,05,06,07,08,09,10,11,12,1.0,1.0,1.0*30
$GPRMC,034549.194,A,2335.055,N,12030.811,E,077.8,046.6,270323,000.0,W*7D
$GPGGA,034549.694,2335.063,N,12030.819,E,1,12,1.0,0.0,M,0.0,M,,*68
$GPGSA,A,3,01,02,03,04,05,06,07,08,09,10,11,12,1.0,1.0,1.0*30
$GPRMC,034549.694,A,2335.063,N,12030.819,E,077.8,046.6,270323,000.0,W*77
$GPGGA,034550.194,2335.071,N,12030.827,E,1,12,1.0,0.0,M,0.0,M,,*69
$GPGSA,A,3,01,02,03,04,05,06,07,08,09,10,11,12,1.0,1.0,1.0*30
$GPRMC,034550.194,A,2335.071,N,12030.827,E,077.8,046.6,270323,000.0,W*76
$GPGGA,034550.694,2335.078,N,12030.835,E,1,12,1.0,0.0,M,0.0,M,,*64
$GPGSA,A,3,01,02,03,04,05,06,07,08,09,10,11,12,1.0,1.0,1.0*30
$GPRMC,034550.694,A,2335.078,N,12030.835,E,077.8,046.6,270323,000.0,W*7B
$GPGGA,034551.194,2335.086,N,12030.844,E,1,12,1.0,0.0,M,0.0,M,,*65
$GPGSA,A,3,01,02,03,04,05,06,07,08,09,10,11,12,1.0,1.0,1.0*30
$GPRMC,034551.194,A,2335.086,N,12030.844,E,077.8,046.6,270323,000.0,W*7A
$GPGGA,034551.694,2335.094,N,12030.852,E,1,12,1.0,0.0,M,0.0,M,,*66
$GPGSA,A,3,01,02,03,04,05,06,07,08,09,10,11,12,1.0,1.0,1.0*30
$GPRMC,034551.694,A,2335.094,N,12030.852,E,077.8,046.6,270323,000.0,W*79
$GPGGA,034552.194,2335.102,N,12030.860,E,1,12,1.0,0.0,M,0.0,M,,*6D
$GPGSA,A,3,01,02,03,04,05,06,07,08,09,10,11,12,1.0,1.0,1.0*30
$GPRMC,034552.194,A,2335.102,N,12030.860,E,077.8,046.6,270323,000.0,W*72
$GPGGA,034552.694,2335.109,N,12030.868,E,1,12,1.0,0.0,M,0.0,M,,*69
$GPGSA,A,3,01,02,03,04,05,06,07,08,09,10,11,12,1.0,1.0,1.0*30
$GPRMC,034552.694,A,2335.109,N,12030.868,E,077.8,046.6,270323,000.0,W*76
$GPGGA,034553.194,2335.117,N,12030.876,E,1,12,1.0,0.0,M,0.0,M,,*6F
$GPGSA,A,3,01,02,03,04,05,06,07,08,09,10,11,12,1.0,1.0,1.0*30
$GPRMC,034553.194,A,2335.117,N,12030.876,E,077.8,046.6,270323,000.0,W*70
$GPGGA,034553.694,2335.125,N,12030.885,E,1,12,1.0,0.0,M,0.0,M,,*65
$GPGSA,A,3,01,02,03,04,05,06,07,08,09,10,11,12,1.0,1.0,1.0*30
$GPRMC,034553.694,A,2335.125,N,12030.885,E,077.8,046.5,270323,000.0,W*79
$GPGGA,034554.194,2335.133,N,12030.893,E,1,12,1.0,0.0,M,0.0,M,,*65
$GPGSA,A,3,01,02,03,04,05,06,07,08,09,10,11,12,1.0,1.0,1.0*30
$GPRMC,034554.194,A,2335.133,N,12030.893,E,077.8,046.5,270323,000.0,W*79
$GPGGA,034554.694,2335.140,N,12030.901,E,1,12,1.0,0.0,M,0.0,M,,*6C
$GPGSA,A,3,01,02,03,04,05,06,07,08,09,10,11,12,1.0,1.0,1.0*30
$GPRMC,034554.694,A,2335.140,N,12030.901,E,077.8,046.5,270323,000.0,W*70
$GPGGA,034555.194,2335.148,N,12030.909,E,1,12,1.0,0.0,M,0.0,M,,*6A
$GPGSA,A,3,01,02,03,04,05,06,07,08,09,10,11,12,1.0,1.0,1.0*30
$GPRMC,034555.194,A,2335.148,N,12030.909,E,077.8,046.5,270323,000.0,W*76
$GPGGA,034555.694,2335.156,N,12030.917,E,1,12,1.0,0.0,M,0.0,M,,*6D
$GPGSA,A,3,01,02,03,04,05,06,07,08,09,10,11,12,1.0,1.0,1.0*30
$GPRMC,034555.694,A,2335.156,N,12030.917,E,077.8,046.5,270323,000.0,W*71
$GPGGA,034556.194,2335.164,N,12030.926,E,1,12,1.0,0.0,M,0.0,M,,*6A
$GPGSA,A,3,01,02,03,04,05,06,07,08,09,10,11,12,1.0,1.0,1.0*30
$GPRMC,034556.194,A,2335.164,N,12030.926,E,077.8,046.5,270323,000.0,W*76
$GPGGA,034556.694,2335.171,N,12030.934,E,1,12,1.0,0.0,M,0.0,M,,*6A
$GPGSA,A,3,01,02,03,04,05,06,07,08,09,10,11,12,1.0,1.0,1.0*30
$GPRMC,034556.694,A,2335.171,N,12030.934,E,077.8,046.5,270323,000.0,W*76
$GPGGA,034557.194,2335.179,N,12030.942,E,1,12,1.0,0.0,M,0.0,M,,*65
$GPGSA,A,3,01,02,03,04,05,06,07,08,09,10,11,12,1.0,1.0,1.0*30
$GPRMC,034557.194,A,2335.179,N,12030.942,E,077.8,046.5,270323,000.0,W*79
$GPGGA,034557.694,2335.187,N,12030.950,E,1,12,1.0,0.0,M,0.0,M,,*60
$GPGSA,A,3,01,02,03,04,05,06,07,08,09,10,11,12,1.0,1.0,1.0*30
$GPRMC,034557.694,A,2335.187,N,12030.950,E,077.8,046.5,270323,000.0,W*7C
$GPGGA,034558.194,2335.195,N,12030.958,E,1,12,1.0,0.0,M,0.0,M,,*63
$GPGSA,A,3,01,02,03,04,05,06,07,08,09,10,11,12,1.0,1.0,1.0*30
$GPRMC,034558.194,A,2335.195,N,12030.958,E,077.8,046.5,270323,000.0,W*7F
$GPGGA,034558.694,2335.202,N,12030.967,E,1,12,1.0,0.0,M,0.0,M,,*65
$GPGSA,A,3,01,02,03,04,05,06,07,08,09,10,11,12,1.0,1.0,1.0*30
$GPRMC,034558.694,A,2335.202,N,12030.967,E,077.8,046.5,270323,000.0,W*79
$GPGGA,034559.194,2335.210,N,12030.975,E,1,12,1.0,0.0,M,0.0,M,,*63
$GPGSA,A,3,01,02,03,04,05,06,07,08,09,10,11,12,1.0,1.0,1.0*30
$GPRMC,034559.194,A,2335.210,N,12030.975,E,077.8,046.5,270323,000.0,W*7F
$GPGGA,034559.694,2335.218,N,12030.983,E,1,12,1.0,0.0,M,0.0,M,,*65
$GPGSA,A,3,01,02,03,04,05,06,07,08,09,10,11,12,1.0,1.0,1.0*30
$GPRMC,034559.694,A,2335.218,N,12030.983,E,077.8,046.5,270323,000.0,W*79
$GPGGA,034600.194,2335.226,N,12030.991,E,1,12,1.0,0.0,M,0.0,M,,*63
$GPGSA,A,3,01,02,03,04,05,06,07,08,09,10,11,12,1.0,1.0,1.0*30
$GPRMC,034600.194,A,2335.226,N,12030.991,E,077.8,046.5,270323,000.0,W*7F
$GPGGA,034600.694,2335.233,N,12030.999,E,1,12,1.0,0.0,M,0.0,M,,*68
$GPGSA,A,3,01,02,03,04,05,06,07,08,09,10,11,12,1.0,1.0,1.0*30
$GPRMC,034600.694,A,2335.233,N,12030.999,E,077.8,046.5,270323,000.0,W*74
$GPGGA,034601.194,2335.241,N,12031.007,E,1,12,1.0,0.0,M,0.0,M,,*64
$GPGSA,A,3,01,02,03,04,05,06,07,08,09,10,11,12,1.0,1.0,1.0*30
$GPRMC,034601.194,A,2335.241,N,12031.007,E,077.8,046.5,270323,000.0,W*78
$GPGGA,034601.694,2335.249,N,12031.016,E,1,12,1.0,0.0,M,0.0,M,,*6B
$GPGSA,A,3,01,02,03,04,05,06,07,08,09,10,11,12,1.0,1.0,1.0*30
$GPRMC,034601.694,A,2335.249,N,12031.016,E,077.8,046.5,270323,000.0,W*77
$GPGGA,034602.194,2335.257,N,12031.024,E,1,12,1.0,0.0,M,0.0,M,,*61
$GPGSA,A,3,01,02,03,04,05,06,07,08,09,10,11,12,1.0,1.0,1.0*30
$GPRMC,034602.194,A,2335.257,N,12031.024,E,077.8,046.5,270323,000.0,W*7D
$GPGGA,034602.694,2335.265,N,12031.032,E,1,12,1.0,0.0,M,0.0,M,,*60
$GPGSA,A,3,01,02,03,04,05,06,07,08,09,10,11,12,1.0,1.0,1.0*30
$GPRMC,034602.694,A,2335.265,N,12031.032,E,077.8,046.5,270323,000.0,W*7C
$GPGGA,034603.194,2335.272,N,12031.040,E,1,12,1.0,0.0,M,0.0,M,,*65
$GPGSA,A,3,01,02,03,04,05,06,07,08,09,10,11,12,1.0,1.0,1.0*30
$GPRMC,034603.194,A,2335.272,N,12031.040,E,077.8,044.6,270323,000.0,W*78
$GPGGA,034603.694,2335.280,N,12031.048,E,1,12,1.0,0.0,M,0.0,M,,*67
$GPGSA,A,3,01,02,03,04,05,06,07,08,09,10,11,12,1.0,1.0,1.0*30
$GPRMC,034603.694,A,2335.280,N,12031.048,E,077.8,044.6,270323,000.0,W*7A
$GPGGA,034604.194,2335.288,N,12031.056,E,1,12,1.0,0.0,M,0.0,M,,*60
$GPGSA,A,3,01,02,03,04,05,06,07,08,09,10,11,12,1.0,1.0,1.0*30
$GPRMC,034604.194,A,2335.288,N,12031.056,E,077.8,044.6,270323,000.0,W*7D
$GPGGA,034604.694,2335.296,N,12031.064,E,1,12,1.0,0.0,M,0.0,M,,*69
$GPGSA,A,3,01,02,03,04,05,06,07,08,09,10,11,12,1.0,1.0,1.0*30
$GPRMC,034604.694,A,2335.296,N,12031.064,E,077.8,044.6,270323,000.0,W*74
$GPGGA,034605.194,2335.304,N,12031.072,E,1,12,1.0,0.0,M,0.0,M,,*62
$GPGSA,A,3,01,02,03,04,05,06,07,08,09,10,11,12,1.0,1.0,1.0*30
$GPRMC,034605.194,A,2335.304,N,12031.072,E,077.8,044.6,270323,000.0,W*7F
$GPGGA,034605.694,2335.312,N,12031.080,E,1,12,1.0,0.0,M,0.0,M,,*6F
$GPGSA,A,3,01,02,03,04,05,06,07,08,09,10,11,12,1.0,1.0,1.0*30
$GPRMC,034605.694,A,2335.312,N,12031.080,E,077.8,044.6,270323,000.0,W*72
$GPGGA,034606.194,2335.320,N,12031.088,E,1,12,1.0,0.0,M,0.0,M,,*62
$GPGSA,A,3,01,02,03,04,05,06,07,08,09,10,11,12,1.0,1.0,1.0*30
$GPRMC,034606.194,A,2335.320,N,12031.088,E,077.8,044.6,270323,000.0,W*7F
$GPGGA,034606.694,2335.328,N,12031.096,E,1,12,1.0,0.0,M,0.0,M,,*62
$GPGSA,A,3,01,02,03,04,05,06,07,08,09,10,11,12,1.0,1.0,1.0*30
$GPRMC,034606.694,A,2335.328,N,12031.096,E,077.8,044.6,270323,000.0,W*7F
$GPGGA,034607.194,2335.336,N,12031.103,E,1,12,1.0,0.0,M,0.0,M,,*66
$GPGSA,A,3,01,02,03,04,05,06,07,08,09,10,11,12,1.0,1.0,1.0*30
$GPRMC,034607.194,A,2335.336,N,12031.103,E,077.8,044.6,270323,000.0,W*7B
$GPGGA,034607.694,2335.344,N,12031.111,E,1,12,1.0,0.0,M,0.0,M,,*67
$GPGSA,A,3,01,02,03,04,05,06,07,08,09,10,11,12,1.0,1.0,1.0*30
$GPRMC,034607.694,A,2335.344,N,12031.111,E,077.8,044.6,270323,000.0,W*7A
$GPGGA,034608.194,2335.352,N,12031.119,E,1,12,1.0,0.0,M,0.0,M,,*60
$GPGSA,A,3,01,02,03,04,05,06,07,08,09,10,11,12,1.0,1.0,1.0*30
$GPRMC,034608.194,A,2335.352,N,12031.119,E,077.8,044.6,270323,000.0,W*7D
$GPGGA,034608.694,2335.360,N,12031.127,E,1,12,1.0,0.0,M,0.0,M,,*6B
$GPGSA,A,3,01,02,03,04,05,06,07,08,09,10,11,12,1.0,1.0,1.0*30
$GPRMC,034608.694,A,2335.360,N,12031.127,E,077.8,044.6,270323,000.0,W*76
$GPGGA,034609.194,2335.368,N,12031.135,E,1,12,1.0,0.0,M,0.0,M,,*66
$GPGSA,A,3,01,02,03,04,05,06,07,08,09,10,11,12,1.0,1.0,1.0*30
$GPRMC,034609.194,A,2335.368,N,12031.135,E,077.8,044.6,270323,000.0,W*7B
$GPGGA,034609.694,2335.376,N,12031.143,E,1,12,1.0,0.0,M,0.0,M,,*6F
$GPGSA,A,3,01,02,03,04,05,06,07,08,09,10,11,12,1.0,1.0,1.0*30
$GPRMC,034609.694,A,2335.376,N,12031.143,E,077.8,044.6,270323,000.0,W*72
$GPGGA,034610.194,2335.384,N,12031.151,E,1,12,1.0,0.0,M,0.0,M,,*6E
$GPGSA,A,3,01,02,03,04,05,06,07,08,09,10,11,12,1.0,1.0,1.0*30
$GPRMC,034610.194,A,2335.384,N,12031.151,E,077.8,044.6,270323,000.0,W*73
$GPGGA,034610.694,2335.392,N,12031.159,E,1,12,1.0,0.0,M,0.0,M,,*66
$GPGSA,A,3,01,02,03,04,05,06,07,08,09,10,11,12,1.0,1.0,1.0*30
$GPRMC,034610.694,A,2335.392,N,12031.159,E,077.8,044.6,270323,000.0,W*7B
$GPGGA,034611.194,2335.400,N,12031.167,E,1,12,1.0,0.0,M,0.0,M,,*61
$GPGSA,A,3,01,02,03,04,05,06,07,08,09,10,11,12,1.0,1.0,1.0*30
$GPRMC,034611.194,A,2335.400,N,12031.167,E,077.8,036.2,270323,000.0,W*7D
$GPGGA,034611.694,2335.409,N,12031.173,E,1,12,1.0,0.0,M,0.0,M,,*6A
$GPGSA,A,3,01,02,03,04,05,06,07,08,09,10,11,12,1.0,1.0,1.0*30
$GPRMC,034611.694,A,2335.409,N,12031.173,E,077.8,036.2,270323,000.0,W*76
$GPGGA,034612.194,2335.418,N,12031.180,E,1,12,1.0,0.0,M,0.0,M,,*62
$GPGSA,A,3,01,02,03,04,05,06,07,08,09,10,11,12,1.0,1.0,1.0*30
$GPRMC,034612.194,A,2335.418,N,12031.180,E,077.8,036.2,270323,000.0,W*7E
$GPGGA,034612.694,2335.427,N,12031.186,E,1,12,1.0,0.0,M,0.0,M,,*6F
$GPGSA,A,3,01,02,03,04,05,06,07,08,09,10,11,12,1.0,1.0,1.0*30
$GPRMC,034612.694,A,2335.427,N,12031.186,E,077.8,036.2,270323,000.0,W*73
$GPGGA,034613.194,2335.436,N,12031.193,E,1,12,1.0,0.0,M,0.0,M,,*6D
$GPGSA,A,3,01,02,03,04,05,06,07,08,09,10,11,12,1.0,1.0,1.0*30
$GPRMC,034613.194,A,2335.436,N,12031.193,E,077.8,036.2,270323,000.0,W*71
$GPGGA,034613.694,2335.445,N,12031.199,E,1,12,1.0,0.0,M,0.0,M,,*64
$GPGSA,A,3,01,02,03,04,05,06,07,08,09,10,11,12,1.0,1.0,1.0*30
$GPRMC,034613.694,A,2335.445,N,12031.199,E,077.8,036.2,270323,000.0,W*78
$GPGGA,034614.194,2335.454,N,12031.206,E,1,12,1.0,0.0,M,0.0,M,,*61
$GPGSA,A,3,01,02,03,04,05,06,07,08,09,10,11,12,1.0,1.0,1.0*30
$GPRMC,034614.194,A,2335.454,N,12031.206,E,077.8,036.2,270323,000.0,W*7D
$GPGGA,034614.694,2335.463,N,12031.213,E,1,12,1.0,0.0,M,0.0,M,,*66
$GPGSA,A,3,01,02,03,04,05,06,07,08,09,10,11,12,1.0,1.0,1.0*30
$GPRMC,034614.694,A,2335.463,N,12031.213,E,077.8,036.2,270323,000.0,W*7A
$GPGGA,034615.194,2335.472,N,12031.219,E,1,12,1.0,0.0,M,0.0,M,,*6A
$GPGSA,A,3,01,02,03,04,05,06,07,08,09,10,11,12,1.0,1.0,1.0*30
$GPRMC,034615.194,A,2335.472,N,12031.219,E,077.8,036.2,270323,000.0,W*76
$GPGGA,034615.694,2335.481,N,12031.226,E,1,12,1.0,0.0,M,0.0,M,,*6D
$GPGSA,A,3,01,02,03,04,05,06,07,08,09,10,11,12,1.0,1.0,1.0*30
$GPRMC,034615.694,A,2335.481,N,12031.226,E,077.8,033.4,270323,000.0,W*72
$GPGGA,034616.194,2335.490,N,12031.232,E,1,12,1.0,0.0,M,0.0,M,,*6C
$GPGSA,A,3,01,02,03,04,05,06,07,08,09,10,11,12,1.0,1.0,1.0*30
$GPRMC,034616.194,A,2335.490,N,12031.232,E,077.8,033.4,270323,000.0,W*73
$GPGGA,034616.694,2335.499,N,12031.238,E,1,12,1.0,0.0,M,0.0,M,,*68
$GPGSA,A,3,01,02,03,04,05,06,07,08,09,10,11,12,1.0,1.0,1.0*30
$GPRMC,034616.694,A,2335.499,N,12031.238,E,077.8,033.4,270323,000.0,W*77
$GPGGA,034617.194,2335.509,N,12031.244,E,1,12,1.0,0.0,M,0.0,M,,*6D
$GPGSA,A,3,01,02,03,04,05,06,07,08,09,10,11,12,1.0,1.0,1.0*30
$GPRMC,034617.194,A,2335.509,N,12031.244,E,077.8,033.4,270323,000.0,W*72
$GPGGA,034617.694,2335.518,N,12031.250,E,1,12,1.0,0.0,M,0.0,M,,*6F
$GPGSA,A,3,01,02,03,04,05,06,07,08,09,10,11,12,1.0,1.0,1.0*30
$GPRMC,034617.694,A,2335.518,N,12031.250,E,077.8,033.4,270323,000.0,W*70
$GPGGA,034618.194,2335.527,N,12031.256,E,1,12,1.0,0.0,M,0.0,M,,*6D
$GPGSA,A,3,01,02,03,04,05,06,07,08,09,10,11,12,1.0,1.0,1.0*30
$GPRMC,034618.194,A,2335.527,N,12031.256,E,077.8,033.4,270323,000.0,W*72
$GPGGA,034618.694,2335.536,N,12031.262,E,1,12,1.0,0.0,M,0.0,M,,*6D
$GPGSA,A,3,01,02,03,04,05,06,07,08,09,10,11,12,1.0,1.0,1.0*30
$GPRMC,034618.694,A,2335.536,N,12031.262,E,077.8,033.4,270323,000.0,W*72
$GPGGA,034619.194,2335.546,N,12031.268,E,1,12,1.0,0.0,M,0.0,M,,*66
$GPGSA,A,3,01,02,03,04,05,06,07,08,09,10,11,12,1.0,1.0,1.0*30
$GPRMC,034619.194,A,2335.546,N,12031.268,E,077.8,033.4,270323,000.0,W*79
$GPGGA,034619.694,2335.555,N,12031.275,E,1,12,1.0,0.0,M,0.0,M,,*6F
$GPGSA,A,3,01,02,03,04,05,06,07,08,09,10,11,12,1.0,1.0,1.0*30
$GPRMC,034619.694,A,2335.555,N,12031.275,E,077.8,033.4,270323,000.0,W*70
$GPGGA,034620.194,2335.564,N,12031.281,E,1,12,1.0,0.0,M,0.0,M,,*6B
$GPGSA,A,3,01,02,03,04,05,06,07,08,09,10,11,12,1.0,1.0,1.0*30
$GPRMC,034620.194,A,2335.564,N,12031.281,E,077.8,033.4,270323,000.0,W*74
$GPGGA,034620.694,2335.573,N,12031.287,E,1,12,1.0,0.0,M,0.0,M,,*6C
$GPGSA,A,3,01,02,03,04,05,06,07,08,09,10,11,12,1.0,1.0,1.0*30
$GPRMC,034620.694,A,2335.573,N,12031.287,E,077.8,033.4,270323,000.0,W*73
$GPGGA,034621.194,2335.582,N,12031.293,E,1,12,1.0,0.0,M,0.0,M,,*61
$GPGSA,A,3,01,02,03,04,05,06,07,08,09,10,11,12,1.0,1.0,1.0*30
$GPRMC,034621.194,A,2335.582,N,12031.293,E,077.8,033.4,270323,000.0,W*7E
$GPGGA,034621.694,2335.592,N,12031.299,E,1,12,1.0,0.0,M,0.0,M,,*6D
$GPGSA,A,3,01,02,03,04,05,06,07,08,09,10,11,12,1.0,1.0,1.0*30
$GPRMC,034621.694,A,2335.592,N,12031.299,E,077.8,030.2,270323,000.0,W*77
$GPGGA,034622.194,2335.601,N,12031.304,E,1,12,1.0,0.0,M,0.0,M,,*65
$GPGSA,A,3,01,02,03,04,05,06,07,08,09,10,11,12,1.0,1.0,1.0*30
$GPRMC,034622.194,A,2335.601,N,12031.304,E,077.8,030.2,270323,000.0,W*7F
$GPGGA,034622.694,2335.611,N,12031.310,E,1,12,1.0,0.0,M,0.0,M,,*66
$GPGSA,A,3,01,02,03,04,05,06,07,08,09,10,11,12,1.0,1.0,1.0*30
$GPRMC,034622.694,A,2335.611,N,12031.310,E,077.8,030.2,270323,000.0,W*7C
$GPGGA,034623.194,2335.620,N,12031.316,E,1,12,1.0,0.0,M,0.0,M,,*64
$GPGSA,A,3,01,02,03,04,05,06,07,08,09,10,11,12,1.0,1.0,1.0*30
$GPRMC,034623.194,A,2335.620,N,12031.316,E,077.8,030.2,270323,000.0,W*7E
$GPGGA,034623.694,2335.630,N,12031.321,E,1,12,1.0,0.0,M,0.0,M,,*66
$GPGSA,A,3,01,02,03,04,05,06,07,08,09,10,11,12,1.0,1.0,1.0*30
$GPRMC,034623.694,A,2335.630,N,12031.321,E,077.8,030.2,270323,000.0,W*7C
$GPGGA,034624.194,2335.639,N,12031.327,E,1,12,1.0,0.0,M,0.0,M,,*69
$GPGSA,A,3,01,02,03,04,05,06,07,08,09,10,11,12,1.0,1.0,1.0*30
$GPRMC,034624.194,A,2335.639,N,12031.327,E,077.8,030.2,270323,000.0,W*73
$GPGGA,034624.694,2335.649,N,12031.332,E,1,12,1.0,0.0,M,0.0,M,,*6D
$GPGSA,A,3,01,02,03,04,05,06,07,08,09,10,11,12,1.0,1.0,1.0*30
$GPRMC,034624.694,A,2335.649,N,12031.332,E,077.8,030.2,270323,000.0,W*77
$GPGGA,034625.194,2335.658,N,12031.338,E,1,12,1.0,0.0,M,0.0,M,,*61
$GPGSA,A,3,01,02,03,04,05,06,07,08,09,10,11,12,1.0,1.0,1.0*30
$GPRMC,034625.194,A,2335.658,N,12031.338,E,077.8,030.2,270323,000.0,W*7B
$GPGGA,034625.694,2335.668,N,12031.343,E,1,12,1.0,0.0,M,0.0,M,,*69
$GPGSA,A,3,01,02,03,04,05,06,07,08,09,10,11,12,1.0,1.0,1.0*30
$GPRMC,034625.694,A,2335.668,N,12031.343,E,077.8,030.2,270323,000.0,W*73
$GPGGA,034626.194,2335.677,N,12031.349,E,1,12,1.0,0.0,M,0.0,M,,*69
$GPGSA,A,3,01,02,03,04,05,06,07,08,09,10,11,12,1.0,1.0,1.0*30
$GPRMC,034626.194,A,2335.677,N,12031.349,E,077.8,030.2,270323,000.0,W*73
$GPGGA,034626.694,2335.687,N,12031.354,E,1,12,1.0,0.0,M,0.0,M,,*6D
$GPGSA,A,3,01,02,03,04,05,06,07,08,09,10,11,12,1.0,1.0,1.0*30
$GPRMC,034626.694,A,2335.687,N,12031.354,E,077.8,030.2,270323,000.0,W*77
$GPGGA,034627.194,2335.696,N,12031.360,E,1,12,1.0,0.0,M,0.0,M,,*6C
$GPGSA,A,3,01,02,03,04,05,06,07,08,09,10,11,12,1.0,1.0,1.0*30
$GPRMC,034627.194,A,2335.696,N,12031.360,E,077.8,030.2,270323,000.0,W*76
$GPGGA,034627.694,2335.706,N,12031.365,E,1,12,1.0,0.0,M,0.0,M,,*66
$GPGSA,A,3,01,02,03,04,05,06,07,08,09,10,11,12,1.0,1.0,1.0*30
$GPRMC,034627.694,A,2335.706,N,12031.365,E,077.8,030.2,270323,000.0,W*7C
$GPGGA,034628.194,2335.715,N,12031.371,E,1,12,1.0,0.0,M,0.0,M,,*69
$GPGSA,A,3,01,02,03,04,05,06,07,08,09,10,11,12,1.0,1.0,1.0*30
$GPRMC,034628.194,A,2335.715,N,12031.371,E,077.8,030.2,270323,000.0,W*73
$GPGGA,034628.694,2335.725,N,12031.376,E,1,12,1.0,0.0,M,0.0,M,,*6A
$GPGSA,A,3,01,02,03,04,05,06,07,08,09,10,11,12,1.0,1.0,1.0*30
$GPRMC,034628.694,A,2335.725,N,12031.376,E,077.8,030.2,270323,000.0,W*70
$GPGGA,034629.194,2335.735,N,12031.382,E,1,12,1.0,0.0,M,0.0,M,,*66
$GPGSA,A,3,01,02,03,04,05,06,07,08,09,10,11,12,1.0,1.0,1.0*30
$GPRMC,034629.194,A,2335.735,N,12031.382,E,077.8,028.5,270323,000.0,W*72
$GPGGA,034629.694,2335.744,N,12031.387,E,1,12,1.0,0.0,M,0.0,M,,*62
$GPGSA,A,3,01,02,03,04,05,06,07,08,09,10,11,12,1.0,1.0,1.0*30
$GPRMC,034629.694,A,2335.744,N,12031.387,E,077.8,028.5,270323,000.0,W*76
$GPGGA,034630.194,2335.754,N,12031.392,E,1,12,1.0,0.0,M,0.0,M,,*68
$GPGSA,A,3,01,02,03,04,05,06,07,08,09,10,11,12,1.0,1.0,1.0*30
$GPRMC,034630.194,A,2335.754,N,12031.392,E,077.8,028.5,270323,000.0,W*7C
$GPGGA,034630.694,2335.764,N,12031.398,E,1,12,1.0,0.0,M,0.0,M,,*66
$GPGSA,A,3,01,02,03,04,05,06,07,08,09,10,11,12,1.0,1.0,1.0*30
$GPRMC,034630.694,A,2335.764,N,12031.398,E,077.8,028.5,270323,000.0,W*72
$GPGGA,034631.194,2335.773,N,12031.403,E,1,12,1.0,0.0,M,0.0,M,,*63
$GPGSA,A,3,01,02,03,04,05,06,07,08,09,10,11,12,1.0,1.0,1.0*30
$GPRMC,034631.194,A,2335.773,N,12031.403,E,077.8,028.5,270323,000.0,W*77
$GPGGA,034631.694,2335.783,N,12031.408,E,1,12,1.0,0.0,M,0.0,M,,*60
$GPGSA,A,3,01,02,03,04,05,06,07,08,09,10,11,12,1.0,1.0,1.0*30
$GPRMC,034631.694,A,2335.783,N,12031.408,E,077.8,028.5,270323,000.0,W*74
$GPGGA,034632.194,2335.793,N,12031.413,E,1,12,1.0,0.0,M,0.0,M,,*6F
$GPGSA,A,3,01,02,03,04,05,06,07,08,09,10,11,12,1.0,1.0,1.0*30
$GPRMC,034632.194,A,2335.793,N,12031.413,E,077.8,028.5,270323,000.0,W*7B
$GPGGA,034632.694,2335.802,N,12031.419,E,1,12,1.0,0.0,M,0.0,M,,*65
$GPGSA,A,3,01,02,03,04,05,06,07,08,09,10,11,12,1.0,1.0,1.0*30
$GPRMC,034632.694,A,2335.802,N,12031.419,E,077.8,028.5,270323,000.0,W*71
$GPGGA,034633.194,2335.812,N,12031.424,E,1,12,1.0,0.0,M,0.0,M,,*6C
$GPGSA,A,3,01,02,03,04,05,06,07,08,09,10,11,12,1.0,1.0,1.0*30
$GPRMC,034633.194,A,2335.812,N,12031.424,E,077.8,028.5,270323,000.0,W*78
$GPGGA,034633.694,2335.822,N,12031.429,E,1,12,1.0,0.0,M,0.0,M,,*65
$GPGSA,A,3,01,02,03,04,05,06,07,08,09,10,11,12,1.0,1.0,1.0*30
$GPRMC,034633.694,A,2335.822,N,12031.429,E,077.8,029.4,270323,000.0,W*71
$GPGGA,034634.194,2335.831,N,12031.435,E,1,12,1.0,0.0,M,0.0,M,,*6A
$GPGSA,A,3,01,02,03,04,05,06,07,08,09,10,11,12,1.0,1.0,1.0*30
$GPRMC,034634.194,A,2335.831,N,12031.435,E,077.8,029.4,270323,000.0,W*7E
$GPGGA,034634.694,2335.841,N,12031.440,E,1,12,1.0,0.0,M,0.0,M,,*68
$GPGSA,A,3,01,02,03,04,05,06,07,08,09,10,11,12,1.0,1.0,1.0*30
$GPRMC,034634.694,A,2335.841,N,12031.440,E,077.8,029.4,270323,000.0,W*7C
$GPGGA,034635.194,2335.850,N,12031.445,E,1,12,1.0,0.0,M,0.0,M,,*6B
$GPGSA,A,3,01,02,03,04,05,06,07,08,09,10,11,12,1.0,1.0,1.0*30
$GPRMC,034635.194,A,2335.850,N,12031.445,E,077.8,029.4,270323,000.0,W*7F
$GPGGA,034635.694,2335.860,N,12031.451,E,1,12,1.0,0.0,M,0.0,M,,*6A
$GPGSA,A,3,01,02,03,04,05,06,07,08,09,10,11,12,1.0,1.0,1.0*30
$GPRMC,034635.694,A,2335.860,N,12031.451,E,077.8,029.4,270323,000.0,W*7E
$GPGGA,034636.194,2335.869,N,12031.456,E,1,12,1.0,0.0,M,0.0,M,,*60
$GPGSA,A,3,01,02,03,04,05,06,07,08,09,10,11,12,1.0,1.0,1.0*30
$GPRMC,034636.194,A,2335.869,N,12031.456,E,077.8,029.4,270323,000.0,W*74
$GPGGA,034636.694,2335.879,N,12031.462,E,1,12,1.0,0.0,M,0.0,M,,*61
$GPGSA,A,3,01,02,03,04,05,06,07,08,09,10,11,12,1.0,1.0,1.0*30
$GPRMC,034636.694,A,2335.879,N,12031.462,E,077.8,029.4,270323,000.0,W*75
$GPGGA,034637.194,2335.889,N,12031.467,E,1,12,1.0,0.0,M,0.0,M,,*6D
$GPGSA,A,3,01,02,03,04,05,06,07,08,09,10,11,12,1.0,1.0,1.0*30
$GPRMC,034637.194,A,2335.889,N,12031.467,E,077.8,029.4,270323,000.0,W*79
$GPGGA,034637.694,2335.898,N,12031.472,E,1,12,1.0,0.0,M,0.0,M,,*6E
$GPGSA,A,3,01,02,03,04,05,06,07,08,09,10,11,12,1.0,1.0,1.0*30
$GPRMC,034637.694,A,2335.898,N,12031.472,E,077.8,029.4,270323,000.0,W*7A
$GPGGA,034638.194,2335.908,N,12031.478,E,1,12,1.0,0.0,M,0.0,M,,*64
$GPGSA,A,3,01,02,03,04,05,06,07,08,09,10,11,12,1.0,1.0,1.0*30
$GPRMC,034638.194,A,2335.908,N,12031.478,E,077.8,029.4,270323,000.0,W*70
$GPGGA,034638.694,2335.917,N,12031.483,E,1,12,1.0,0.0,M,0.0,M,,*69
$GPGSA,A,3,01,02,03,04,05,06,07,08,09,10,11,12,1.0,1.0,1.0*30
$GPRMC,034638.694,A,2335.917,N,12031.483,E,077.8,029.4,270323,000.0,W*7D
$GPGGA,034639.194,2335.927,N,12031.489,E,1,12,1.0,0.0,M,0.0,M,,*66
$GPGSA,A,3,01,02,03,04,05,06,07,08,09,10,11,12,1.0,1.0,1.0*30
$GPRMC,034639.194,A,2335.927,N,12031.489,E,077.8,029.4,270323,000.0,W*72
$GPGGA,034639.694,2335.937,N,12031.494,E,1,12,1.0,0.0,M,0.0,M,,*6C
$GPGSA,A,3,01,02,03,04,05,06,07,08,09,10,11,12,1.0,1.0,1.0*30
$GPRMC,034639.694,A,2335.937,N,12031.494,E,077.8,029.4,270323,000.0,W*78
$GPGGA,034640.194,2335.946,N,12031.500,E,1,12,1.0,0.0,M,0.0,M,,*6F
$GPGSA,A,3,01,02,03,04,05,06,07,08,09,10,11,12,1.0,1.0,1.0*30
$GPRMC,034640.194,A,2335.946,N,12031.500,E,077.8,029.4,270323,000.0,W*7B
$GPGGA,034640.694,2335.956,N,12031.505,E,1,12,1.0,0.0,M,0.0,M,,*6C
$GPGSA,A,3,01,02,03,04,05,06,07,08,09,10,11,12,1.0,1.0,1.0*30
$GPRMC,034640.694,A,2335.956,N,12031.505,E,077.8,029.4,270323,000.0,W*78
$GPGGA,034641.194,2335.965,N,12031.510,E,1,12,1.0,0.0,M,0.0,M,,*6E
$GPGSA,A,3,01,02,03,04,05,06,07,08,09,10,11,12,1.0,1.0,1.0*30
$GPRMC,034641.194,A,2335.965,N,12031.510,E,077.8,033.2,270323,000.0,W*77
$GPGGA,034641.694,2335.975,N,12031.516,E,1,12,1.0,0.0,M,0.0,M,,*6E
$GPGSA,A,3,01,02,03,04,05,06,07,08,09,10,11,12,1.0,1.0,1.0*30
$GPRMC,034641.694,A,2335.975,N,12031.516,E,077.8,033.2,270323,000.0,W*77
$GPGGA,034642.194,2335.984,N,12031.522,E,1,12,1.0,0.0,M,0.0,M,,*63
$GPGSA,A,3,01,02,03,04,05,06,07,08,09,10,11,12,1.0,1.0,1.0*30
$GPRMC,034642.194,A,2335.984,N,12031.522,E,077.8,033.2,270323,000.0,W*7A
$GPGGA,034642.694,2335.993,N,12031.529,E,1,12,1.0,0.0,M,0.0,M,,*69
$GPGSA,A,3,01,02,03,04,05,06,07,08,09,10,11,12,1.0,1.0,1.0*30
$GPRMC,034642.694,A,2335.993,N,12031.529,E,077.8,033.2,270323,000.0,W*70
$GPGGA,034643.194,2336.002,N,12031.535,E,1,12,1.0,0.0,M,0.0,M,,*60
$GPGSA,A,3,01,02,03,04,05,06,07,08,09,10,11,12,1.0,1.0,1.0*30
$GPRMC,034643.194,A,2336.002,N,12031.535,E,077.8,033.2,270323,000.0,W*79
$GPGGA,034643.694,2336.012,N,12031.541,E,1,12,1.0,0.0,M,0.0,M,,*65
$GPGSA,A,3,01,02,03,04,05,06,07,08,09,10,11,12,1.0,1.0,1.0*30
$GPRMC,034643.694,A,2336.012,N,12031.541,E,077.8,033.2,270323,000.0,W*7C
$GPGGA,034644.194,2336.021,N,12031.547,E,1,12,1.0,0.0,M,0.0,M,,*63
$GPGSA,A,3,01,02,03,04,05,06,07,08,09,10,11,12,1.0,1.0,1.0*30
$GPRMC,034644.194,A,2336.021,N,12031.547,E,077.8,033.2,270323,000.0,W*7A
$GPGGA,034644.694,2336.030,N,12031.553,E,1,12,1.0,0.0,M,0.0,M,,*61
$GPGSA,A,3,01,02,03,04,05,06,07,08,09,10,11,12,1.0,1.0,1.0*30
$GPRMC,034644.694,A,2336.030,N,12031.553,E,077.8,033.2,270323,000.0,W*78
$GPGGA,034645.194,2336.039,N,12031.559,E,1,12,1.0,0.0,M,0.0,M,,*64
$GPGSA,A,3,01,02,03,04,05,06,07,08,09,10,11,12,1.0,1.0,1.0*30
$GPRMC,034645.194,A,2336.039,N,12031.559,E,077.8,033.2,270323,000.0,W*7D
